{
"type": "FeatureCollection",
"crs": { "type": "name", "properties": { "name": "urn:ogc:def:crs:OGC:1.3:CRS84" } },
                                                                                                                                  
"features": [
{ "type": "Feature", "properties": { "Status": "M", "Score": 100.000000, "Match_type": "A", "Match_addr": "725 FLORENCE AVE", "Ref_ID": 88857, "User_fld": "0", "Addr_type": "Address", "ARC_Single": "725 FLORENCE AVE", "Address": "725 FLORENCE AVE" }, "geometry": { "type": "Point", "coordinates": [ -84.506731577072529, 38.066221668743246 ] } },
{ "type": "Feature", "properties": { "Status": "M", "Score": 100.000000, "Match_type": "A", "Match_addr": "519 E SECOND ST", "Ref_ID": 84723, "User_fld": "0", "Addr_type": "Address", "ARC_Single": "519 E SECOND ST", "Address": "519 E SECOND ST" }, "geometry": { "type": "Point", "coordinates": [ -84.486879321976105, 38.042891416932846 ] } },
{ "type": "Feature", "properties": { "Status": "M", "Score": 100.000000, "Match_type": "A", "Match_addr": "444 MORGAN AVE", "Ref_ID": 3505, "User_fld": "0", "Addr_type": "Address", "ARC_Single": "444 MORGAN AVE", "Address": "444 MORGAN AVE" }, "geometry": { "type": "Point", "coordinates": [ -84.468708324617822, 38.056610766448429 ] } },
{ "type": "Feature", "properties": { "Status": "M", "Score": 100.000000, "Match_type": "A", "Match_addr": "340 E SEVENTH ST", "Ref_ID": 31704, "User_fld": "0", "Addr_type": "Address", "ARC_Single": "340 E SEVENTH ST", "Address": "340 E SEVENTH ST" }, "geometry": { "type": "Point", "coordinates": [ -84.48007255811352, 38.051430106484752 ] } },
{ "type": "Feature", "properties": { "Status": "M", "Score": 100.000000, "Match_type": "A", "Match_addr": "463 CHESTNUT ST", "Ref_ID": 55414, "User_fld": "0", "Addr_type": "Address", "ARC_Single": "463 CHESTNUT ST", "Address": "463 CHESTNUT ST" }, "geometry": { "type": "Point", "coordinates": [ -84.484032652296378, 38.047840802934381 ] } },
{ "type": "Feature", "properties": { "Status": "M", "Score": 100.000000, "Match_type": "A", "Match_addr": "341 N LIMESTONE", "Ref_ID": 72893, "User_fld": "0", "Addr_type": "Address", "ARC_Single": "341 N LIMESTONE", "Address": "341 N LIMESTONE" }, "geometry": { "type": "Point", "coordinates": [ -84.491611345658256, 38.050486196200943 ] } },
{ "type": "Feature", "properties": { "Status": "M", "Score": 100.000000, "Match_type": "A", "Match_addr": "715 DAKOTA ST", "Ref_ID": 26195, "User_fld": "0", "Addr_type": "Address", "ARC_Single": "715 DAKOTA ST", "Address": "715 DAKOTA ST" }, "geometry": { "type": "Point", "coordinates": [ -84.485927485186451, 38.057723699160228 ] } },
{ "type": "Feature", "properties": { "Status": "M", "Score": 100.000000, "Match_type": "A", "Match_addr": "1009 DARLEY DR", "Ref_ID": 65770, "User_fld": "0", "Addr_type": "Address", "ARC_Single": "1009 DARLEY DR", "Address": "1009 DARLEY DR" }, "geometry": { "type": "Point", "coordinates": [ -84.465280924353792, 38.053668138192521 ] } },
{ "type": "Feature", "properties": { "Status": "M", "Score": 100.000000, "Match_type": "A", "Match_addr": "341 N MARTIN LUTHER KING BLVD", "Ref_ID": 106029, "User_fld": "0", "Addr_type": "Address", "ARC_Single": "341 N MARTIN LUTHER KING BLVD", "Address": "341 N MARTIN LUTHER KING BLVD" }, "geometry": { "type": "Point", "coordinates": [ -84.489807483686747, 38.049075014496012 ] } },
{ "type": "Feature", "properties": { "Status": "M", "Score": 100.000000, "Match_type": "A", "Match_addr": "400 E THIRD ST", "Ref_ID": 89661, "User_fld": "0", "Addr_type": "Address", "ARC_Single": "400 E THIRD ST", "Address": "400 E THIRD ST" }, "geometry": { "type": "Point", "coordinates": [ -84.487030685020244, 38.044712584994706 ] } },
{ "type": "Feature", "properties": { "Status": "M", "Score": 100.000000, "Match_type": "A", "Match_addr": "400 PRICE RD", "Ref_ID": 88815, "User_fld": "0", "Addr_type": "Address", "ARC_Single": "400 PRICE RD", "Address": "400 PRICE RD" }, "geometry": { "type": "Point", "coordinates": [ -84.509002256906626, 38.067555290256351 ] } },
{ "type": "Feature", "properties": { "Status": "M", "Score": 100.000000, "Match_type": "A", "Match_addr": "568 MARYLAND AVE", "Ref_ID": 103921, "User_fld": "0", "Addr_type": "Address", "ARC_Single": "568 MARYLAND AVE", "Address": "568 MARYLAND AVE" }, "geometry": { "type": "Point", "coordinates": [ -84.50205131737988, 38.056327033665454 ] } },
{ "type": "Feature", "properties": { "Status": "M", "Score": 100.000000, "Match_type": "A", "Match_addr": "313 GIVEN AVE", "Ref_ID": 91973, "User_fld": "0", "Addr_type": "Address", "ARC_Single": "313 GIVEN AVE", "Address": "313 GIVEN AVE" }, "geometry": { "type": "Point", "coordinates": [ -84.478120490923871, 38.038751965295511 ] } },
{ "type": "Feature", "properties": { "Status": "M", "Score": 100.000000, "Match_type": "A", "Match_addr": "342 E SECOND ST", "Ref_ID": 92702, "User_fld": "0", "Addr_type": "Address", "ARC_Single": "342 E SECOND ST", "Address": "342 E SECOND ST" }, "geometry": { "type": "Point", "coordinates": [ -84.489424024250027, 38.044491528321529 ] } },
{ "type": "Feature", "properties": { "Status": "M", "Score": 100.000000, "Match_type": "A", "Match_addr": "148 BELT LINE AVE", "Ref_ID": 3664, "User_fld": "0", "Addr_type": "Address", "ARC_Single": "148 BELT LINE AVE", "Address": "148 BELT LINE AVE" }, "geometry": { "type": "Point", "coordinates": [ -84.480187994998488, 38.054643293611115 ] } },
{ "type": "Feature", "properties": { "Status": "M", "Score": 100.000000, "Match_type": "A", "Match_addr": "639 N LIMESTONE", "Ref_ID": 91909, "User_fld": "0", "Addr_type": "Address", "ARC_Single": "639 N LIMESTONE", "Address": "639 N LIMESTONE" }, "geometry": { "type": "Point", "coordinates": [ -84.485526653693611, 38.054865086668677 ] } },
{ "type": "Feature", "properties": { "Status": "M", "Score": 100.000000, "Match_type": "A", "Match_addr": "365 ROOSEVELT BLVD", "Ref_ID": 1552, "User_fld": "0", "Addr_type": "Address", "ARC_Single": "365 ROOSEVELT BLVD", "Address": "365 ROOSEVELT BLVD" }, "geometry": { "type": "Point", "coordinates": [ -84.505036900514838, 38.067534752893138 ] } },
{ "type": "Feature", "properties": { "Status": "M", "Score": 100.000000, "Match_type": "A", "Match_addr": "647 OHIO ST", "Ref_ID": 47377, "User_fld": "0", "Addr_type": "Address", "ARC_Single": "647 OHIO ST", "Address": "647 OHIO ST" }, "geometry": { "type": "Point", "coordinates": [ -84.481086278297411, 38.051194975272431 ] } },
{ "type": "Feature", "properties": { "Status": "M", "Score": 100.000000, "Match_type": "A", "Match_addr": "417 HAWKINS AVE", "Ref_ID": 58019, "User_fld": "0", "Addr_type": "Address", "ARC_Single": "417 HAWKINS AVE", "Address": "417 HAWKINS AVE" }, "geometry": { "type": "Point", "coordinates": [ -84.484701594807703, 38.046424313946247 ] } },
{ "type": "Feature", "properties": { "Status": "M", "Score": 100.000000, "Match_type": "A", "Match_addr": "764 MAPLE AVE", "Ref_ID": 23458, "User_fld": "0", "Addr_type": "Address", "ARC_Single": "764 MAPLE AVE", "Address": "764 MAPLE AVE" }, "geometry": { "type": "Point", "coordinates": [ -84.479541054677256, 38.054037538630041 ] } },
{ "type": "Feature", "properties": { "Status": "M", "Score": 100.000000, "Match_type": "A", "Match_addr": "1048 DARLEY DR", "Ref_ID": 26244, "User_fld": "0", "Addr_type": "Address", "ARC_Single": "1048 DARLEY DR", "Address": "1048 DARLEY DR" }, "geometry": { "type": "Point", "coordinates": [ -84.463336085692632, 38.05450381611579 ] } },
{ "type": "Feature", "properties": { "Status": "M", "Score": 100.000000, "Match_type": "A", "Match_addr": "385 ROOSEVELT BLVD", "Ref_ID": 1374, "User_fld": "0", "Addr_type": "Address", "ARC_Single": "385 ROOSEVELT BLVD", "Address": "385 ROOSEVELT BLVD" }, "geometry": { "type": "Point", "coordinates": [ -84.505583077672497, 38.067304450372475 ] } },
{ "type": "Feature", "properties": { "Status": "M", "Score": 100.000000, "Match_type": "A", "Match_addr": "117 GLASS AVE", "Ref_ID": 55525, "User_fld": "0", "Addr_type": "Address", "ARC_Single": "117 GLASS AVE", "Address": "117 GLASS AVE" }, "geometry": { "type": "Point", "coordinates": [ -84.456896624114776, 38.038323671688218 ] } },
{ "type": "Feature", "properties": { "Status": "M", "Score": 100.000000, "Match_type": "A", "Match_addr": "130 E LOUDON AVE", "Ref_ID": 3510, "User_fld": "0", "Addr_type": "Address", "ARC_Single": "130 E LOUDON AVE", "Address": "130 E LOUDON AVE" }, "geometry": { "type": "Point", "coordinates": [ -84.481097322476174, 38.056673247184762 ] } },
{ "type": "Feature", "properties": { "Status": "M", "Score": 100.000000, "Match_type": "A", "Match_addr": "725 N UPPER ST", "Ref_ID": 26213, "User_fld": "0", "Addr_type": "Address", "ARC_Single": "725 N UPPER ST", "Address": "725 N UPPER ST" }, "geometry": { "type": "Point", "coordinates": [ -84.484561928861424, 38.056766678688454 ] } },
{ "type": "Feature", "properties": { "Status": "M", "Score": 100.000000, "Match_type": "A", "Match_addr": "550 E SEVENTH ST", "Ref_ID": 44759, "User_fld": "0", "Addr_type": "Address", "ARC_Single": "550 E SEVENTH ST", "Address": "550 E SEVENTH ST" }, "geometry": { "type": "Point", "coordinates": [ -84.476462805979594, 38.048477698016519 ] } },
{ "type": "Feature", "properties": { "Status": "M", "Score": 100.000000, "Match_type": "A", "Match_addr": "1028 N LIMESTONE", "Ref_ID": 44570, "User_fld": "0", "Addr_type": "Address", "ARC_Single": "1028 N LIMESTONE", "Address": "1028 N LIMESTONE" }, "geometry": { "type": "Point", "coordinates": [ -84.476958269741118, 38.060213335202477 ] } },
{ "type": "Feature", "properties": { "Status": "M", "Score": 100.000000, "Match_type": "A", "Match_addr": "739 DAKOTA ST", "Ref_ID": 41921, "User_fld": "0", "Addr_type": "Address", "ARC_Single": "739 DAKOTA ST", "Address": "739 DAKOTA ST" }, "geometry": { "type": "Point", "coordinates": [ -84.485326461889045, 38.058144132375901 ] } },
{ "type": "Feature", "properties": { "Status": "M", "Score": 100.000000, "Match_type": "A", "Match_addr": "126 WILTON AVE", "Ref_ID": 2998, "User_fld": "0", "Addr_type": "Address", "ARC_Single": "126 WILTON AVE", "Address": "126 WILTON AVE" }, "geometry": { "type": "Point", "coordinates": [ -84.518403626826128, 38.059468749409042 ] } },
{ "type": "Feature", "properties": { "Status": "M", "Score": 100.000000, "Match_type": "A", "Match_addr": "654 N MARTIN LUTHER KING BLVD", "Ref_ID": 91618, "User_fld": "0", "Addr_type": "Address", "ARC_Single": "654 N MARTIN LUTHER KING BLVD", "Address": "654 N MARTIN LUTHER KING BLVD" }, "geometry": { "type": "Point", "coordinates": [ -84.482746305184932, 38.053008723549446 ] } },
{ "type": "Feature", "properties": { "Status": "M", "Score": 100.000000, "Match_type": "A", "Match_addr": "334 E SECOND ST", "Ref_ID": 92725, "User_fld": "0", "Addr_type": "Address", "ARC_Single": "334 E SECOND ST", "Address": "334 E SECOND ST" }, "geometry": { "type": "Point", "coordinates": [ -84.489588015010426, 38.044632404232367 ] } },
{ "type": "Feature", "properties": { "Status": "M", "Score": 100.000000, "Match_type": "A", "Match_addr": "422 OHIO ST", "Ref_ID": 3822, "User_fld": "0", "Addr_type": "Address", "ARC_Single": "422 OHIO ST", "Address": "422 OHIO ST" }, "geometry": { "type": "Point", "coordinates": [ -84.485459690987568, 38.047372478754106 ] } },
{ "type": "Feature", "properties": { "Status": "M", "Score": 100.000000, "Match_type": "A", "Match_addr": "765 DAKOTA ST", "Ref_ID": 3100, "User_fld": "0", "Addr_type": "Address", "ARC_Single": "765 DAKOTA ST", "Address": "765 DAKOTA ST" }, "geometry": { "type": "Point", "coordinates": [ -84.484704689215889, 38.05857888532622 ] } },
{ "type": "Feature", "properties": { "Status": "M", "Score": 100.000000, "Match_type": "A", "Match_addr": "769 DAKOTA ST", "Ref_ID": 3035, "User_fld": "0", "Addr_type": "Address", "ARC_Single": "769 DAKOTA ST", "Address": "769 DAKOTA ST" }, "geometry": { "type": "Point", "coordinates": [ -84.484572145872946, 38.058671640407468 ] } },
{ "type": "Feature", "properties": { "Status": "M", "Score": 100.000000, "Match_type": "A", "Match_addr": "552 E SEVENTH ST", "Ref_ID": 29137, "User_fld": "0", "Addr_type": "Address", "ARC_Single": "552 E SEVENTH ST", "Address": "552 E SEVENTH ST" }, "geometry": { "type": "Point", "coordinates": [ -84.476343149324961, 38.048386000902404 ] } },
{ "type": "Feature", "properties": { "Status": "M", "Score": 100.000000, "Match_type": "A", "Match_addr": "208 E LOUDON AVE", "Ref_ID": 89610, "User_fld": "0", "Addr_type": "Address", "ARC_Single": "208 E LOUDON AVE", "Address": "208 E LOUDON AVE" }, "geometry": { "type": "Point", "coordinates": [ -84.478801389363355, 38.054430088677698 ] } },
{ "type": "Feature", "properties": { "Status": "M", "Score": 100.000000, "Match_type": "A", "Match_addr": "459 BRADLEY CT", "Ref_ID": 99765, "User_fld": "0", "Addr_type": "Address", "ARC_Single": "459 BRADLEY CT", "Address": "459 BRADLEY CT" }, "geometry": { "type": "Point", "coordinates": [ -84.504975238167077, 38.069151548680523 ] } },
{ "type": "Feature", "properties": { "Status": "M", "Score": 100.000000, "Match_type": "A", "Match_addr": "747 FLORENCE AVE", "Ref_ID": 88865, "User_fld": "0", "Addr_type": "Address", "ARC_Single": "747 FLORENCE AVE", "Address": "747 FLORENCE AVE" }, "geometry": { "type": "Point", "coordinates": [ -84.507121211409995, 38.066918356558467 ] } },
{ "type": "Feature", "properties": { "Status": "M", "Score": 100.000000, "Match_type": "A", "Match_addr": "717 N UPPER ST", "Ref_ID": 3501, "User_fld": "0", "Addr_type": "Address", "ARC_Single": "717 N UPPER ST", "Address": "717 N UPPER ST" }, "geometry": { "type": "Point", "coordinates": [ -84.484732185227301, 38.056647473442055 ] } },
{ "type": "Feature", "properties": { "Status": "M", "Score": 100.000000, "Match_type": "A", "Match_addr": "516 BOOKER ST", "Ref_ID": 41881, "User_fld": "0", "Addr_type": "Address", "ARC_Single": "516 BOOKER ST", "Address": "516 BOOKER ST" }, "geometry": { "type": "Point", "coordinates": [ -84.501214730134336, 38.061778583554876 ] } },
{ "type": "Feature", "properties": { "Status": "M", "Score": 100.000000, "Match_type": "A", "Match_addr": "417 E SECOND ST", "Ref_ID": 92672, "User_fld": "0", "Addr_type": "Address", "ARC_Single": "417 E SECOND ST", "Address": "417 E SECOND ST" }, "geometry": { "type": "Point", "coordinates": [ -84.487702363110131, 38.043623621785187 ] } },
{ "type": "Feature", "properties": { "Status": "M", "Score": 100.000000, "Match_type": "A", "Match_addr": "457 GREENWOOD AVE", "Ref_ID": 99776, "User_fld": "0", "Addr_type": "Address", "ARC_Single": "457 GREENWOOD AVE", "Address": "457 GREENWOOD AVE" }, "geometry": { "type": "Point", "coordinates": [ -84.50530333715065, 38.069660480606089 ] } },
{ "type": "Feature", "properties": { "Status": "M", "Score": 100.000000, "Match_type": "A", "Match_addr": "953 EFFIE RD", "Ref_ID": 44494, "User_fld": "0", "Addr_type": "Address", "ARC_Single": "953 EFFIE RD", "Address": "953 EFFIE RD" }, "geometry": { "type": "Point", "coordinates": [ -84.510468075399757, 38.072237008736138 ] } },
{ "type": "Feature", "properties": { "Status": "M", "Score": 100.000000, "Match_type": "A", "Match_addr": "454 N MARTIN LUTHER KING BLVD", "Ref_ID": 60618, "User_fld": "0", "Addr_type": "Address", "ARC_Single": "454 N MARTIN LUTHER KING BLVD", "Address": "454 N MARTIN LUTHER KING BLVD" }, "geometry": { "type": "Point", "coordinates": [ -84.487131777783148, 38.050282614407593 ] } },
{ "type": "Feature", "properties": { "Status": "M", "Score": 100.000000, "Match_type": "A", "Match_addr": "512 N UPPER ST", "Ref_ID": 4218, "User_fld": "0", "Addr_type": "Address", "ARC_Single": "512 N UPPER ST", "Address": "512 N UPPER ST" }, "geometry": { "type": "Point", "coordinates": [ -84.488724192996116, 38.05337554029785 ] } },
{ "type": "Feature", "properties": { "Status": "M", "Score": 100.000000, "Match_type": "A", "Match_addr": "763 MAPLE AVE", "Ref_ID": 3949, "User_fld": "0", "Addr_type": "Address", "ARC_Single": "763 MAPLE AVE", "Address": "763 MAPLE AVE" }, "geometry": { "type": "Point", "coordinates": [ -84.479925192572836, 38.054361542185426 ] } },
{ "type": "Feature", "properties": { "Status": "M", "Score": 100.000000, "Match_type": "A", "Match_addr": "376 E THIRD ST", "Ref_ID": 93202, "User_fld": "0", "Addr_type": "Address", "ARC_Single": "376 E THIRD ST", "Address": "376 E THIRD ST" }, "geometry": { "type": "Point", "coordinates": [ -84.487348976069669, 38.044767133998313 ] } },
{ "type": "Feature", "properties": { "Status": "M", "Score": 100.000000, "Match_type": "A", "Match_addr": "446 PRICE RD", "Ref_ID": 98439, "User_fld": "0", "Addr_type": "Address", "ARC_Single": "446 PRICE RD", "Address": "446 PRICE RD" }, "geometry": { "type": "Point", "coordinates": [ -84.506991689600298, 38.068700116721224 ] } },
{ "type": "Feature", "properties": { "Status": "M", "Score": 100.000000, "Match_type": "A", "Match_addr": "811 WHITNEY AVE", "Ref_ID": 93181, "User_fld": "0", "Addr_type": "Address", "ARC_Single": "811 WHITNEY AVE", "Address": "811 WHITNEY AVE" }, "geometry": { "type": "Point", "coordinates": [ -84.504114971363208, 38.06096599031779 ] } },
{ "type": "Feature", "properties": { "Status": "M", "Score": 100.000000, "Match_type": "A", "Match_addr": "410 E LOUDON AVE", "Ref_ID": 4369, "User_fld": "0", "Addr_type": "Address", "ARC_Single": "410 E LOUDON AVE", "Address": "410 E LOUDON AVE" }, "geometry": { "type": "Point", "coordinates": [ -84.475776283669489, 38.051654734012615 ] } },
{ "type": "Feature", "properties": { "Status": "M", "Score": 100.000000, "Match_type": "A", "Match_addr": "437 BRADLEY CT", "Ref_ID": 97691, "User_fld": "0", "Addr_type": "Address", "ARC_Single": "437 BRADLEY CT", "Address": "437 BRADLEY CT" }, "geometry": { "type": "Point", "coordinates": [ -84.506514714279092, 38.068513266753939 ] } },
{ "type": "Feature", "properties": { "Status": "M", "Score": 100.000000, "Match_type": "A", "Match_addr": "323 E SIXTH ST", "Ref_ID": 3316, "User_fld": "0", "Addr_type": "Address", "ARC_Single": "323 E SIXTH ST", "Address": "323 E SIXTH ST" }, "geometry": { "type": "Point", "coordinates": [ -84.48148689064152, 38.049674904496435 ] } },
{ "type": "Feature", "properties": { "Status": "M", "Score": 100.000000, "Match_type": "A", "Match_addr": "106 THOMPSON RD", "Ref_ID": 53956, "User_fld": "0", "Addr_type": "Address", "ARC_Single": "106 THOMPSON RD", "Address": "106 THOMPSON RD" }, "geometry": { "type": "Point", "coordinates": [ -84.516666261095594, 38.060204396747288 ] } },
{ "type": "Feature", "properties": { "Status": "M", "Score": 100.000000, "Match_type": "A", "Match_addr": "334 PRESTON AVE", "Ref_ID": 7082, "User_fld": "0", "Addr_type": "Address", "ARC_Single": "334 PRESTON AVE", "Address": "334 PRESTON AVE" }, "geometry": { "type": "Point", "coordinates": [ -84.4713652125984, 38.035180369105596 ] } },
{ "type": "Feature", "properties": { "Status": "M", "Score": 100.000000, "Match_type": "A", "Match_addr": "601 CHESTNUT ST", "Ref_ID": 5094, "User_fld": "0", "Addr_type": "Address", "ARC_Single": "601 CHESTNUT ST", "Address": "601 CHESTNUT ST" }, "geometry": { "type": "Point", "coordinates": [ -84.481365486240136, 38.049567708243323 ] } },
{ "type": "Feature", "properties": { "Status": "M", "Score": 100.000000, "Match_type": "A", "Match_addr": "522 JEFFERSON ST", "Ref_ID": 3172, "User_fld": "0", "Addr_type": "Address", "ARC_Single": "522 JEFFERSON ST", "Address": "522 JEFFERSON ST" }, "geometry": { "type": "Point", "coordinates": [ -84.493653346689371, 38.058225982697337 ] } },
{ "type": "Feature", "properties": { "Status": "M", "Score": 100.000000, "Match_type": "A", "Match_addr": "565 W SECOND ST", "Ref_ID": 106339, "User_fld": "0", "Addr_type": "Address", "ARC_Single": "565 W SECOND ST", "Address": "565 W SECOND ST" }, "geometry": { "type": "Point", "coordinates": [ -84.501769008659295, 38.055251694554066 ] } },
{ "type": "Feature", "properties": { "Status": "M", "Score": 100.000000, "Match_type": "A", "Match_addr": "541 HASKINS DR", "Ref_ID": 107609, "User_fld": "0", "Addr_type": "Address", "ARC_Single": "541 HASKINS DR", "Address": "541 HASKINS DR" }, "geometry": { "type": "Point", "coordinates": [ -84.50053236137741, 38.067923413837875 ] } },
{ "type": "Feature", "properties": { "Status": "M", "Score": 100.000000, "Match_type": "A", "Match_addr": "666 SHROPSHIRE AVE", "Ref_ID": 4290, "User_fld": "0", "Addr_type": "Address", "ARC_Single": "666 SHROPSHIRE AVE", "Address": "666 SHROPSHIRE AVE" }, "geometry": { "type": "Point", "coordinates": [ -84.477728039559764, 38.049239345304535 ] } },
{ "type": "Feature", "properties": { "Status": "M", "Score": 100.000000, "Match_type": "A", "Match_addr": "673 N LIMESTONE", "Ref_ID": 91896, "User_fld": "0", "Addr_type": "Address", "ARC_Single": "673 N LIMESTONE", "Address": "673 N LIMESTONE" }, "geometry": { "type": "Point", "coordinates": [ -84.484598604794641, 38.055500676571022 ] } },
{ "type": "Feature", "properties": { "Status": "M", "Score": 100.000000, "Match_type": "A", "Match_addr": "718 FLORENCE AVE", "Ref_ID": 93264, "User_fld": "0", "Addr_type": "Address", "ARC_Single": "718 FLORENCE AVE", "Address": "718 FLORENCE AVE" }, "geometry": { "type": "Point", "coordinates": [ -84.506165268633126, 38.066247724072973 ] } },
{ "type": "Feature", "properties": { "Status": "M", "Score": 100.000000, "Match_type": "A", "Match_addr": "441 E SEVENTH ST", "Ref_ID": 36825, "User_fld": "0", "Addr_type": "Address", "ARC_Single": "441 E SEVENTH ST", "Address": "441 E SEVENTH ST" }, "geometry": { "type": "Point", "coordinates": [ -84.47767460861553, 38.049976722859817 ] } },
{ "type": "Feature", "properties": { "Status": "M", "Score": 100.000000, "Match_type": "A", "Match_addr": "166 YORK ST", "Ref_ID": 90725, "User_fld": "0", "Addr_type": "Address", "ARC_Single": "166 YORK ST", "Address": "166 YORK ST" }, "geometry": { "type": "Point", "coordinates": [ -84.481339627662081, 38.054689819455582 ] } },
{ "type": "Feature", "properties": { "Status": "M", "Score": 100.000000, "Match_type": "A", "Match_addr": "613 ELM TREE LN", "Ref_ID": 29088, "User_fld": "0", "Addr_type": "Address", "ARC_Single": "613 ELM TREE LN", "Address": "613 ELM TREE LN" }, "geometry": { "type": "Point", "coordinates": [ -84.482484339038947, 38.051385344461004 ] } },
{ "type": "Feature", "properties": { "Status": "M", "Score": 100.000000, "Match_type": "A", "Match_addr": "547 E THIRD ST", "Ref_ID": 88610, "User_fld": "0", "Addr_type": "Address", "ARC_Single": "547 E THIRD ST", "Address": "547 E THIRD ST" }, "geometry": { "type": "Point", "coordinates": [ -84.483208210414233, 38.04363375565039 ] } },
{ "type": "Feature", "properties": { "Status": "M", "Score": 100.000000, "Match_type": "A", "Match_addr": "646 JACKSON ST", "Ref_ID": 100427, "User_fld": "0", "Addr_type": "Address", "ARC_Single": "646 JACKSON ST", "Address": "646 JACKSON ST" }, "geometry": { "type": "Point", "coordinates": [ -84.475541695597514, 38.047642711709173 ] } },
{ "type": "Feature", "properties": { "Status": "M", "Score": 100.000000, "Match_type": "A", "Match_addr": "154 YORK ST", "Ref_ID": 90721, "User_fld": "0", "Addr_type": "Address", "ARC_Single": "154 YORK ST", "Address": "154 YORK ST" }, "geometry": { "type": "Point", "coordinates": [ -84.481644125267337, 38.054965355839094 ] } },
{ "type": "Feature", "properties": { "Status": "M", "Score": 100.000000, "Match_type": "A", "Match_addr": "413 SILVER MAPLE WAY", "Ref_ID": 31677, "User_fld": "0", "Addr_type": "Address", "ARC_Single": "413 SILVER MAPLE WAY", "Address": "413 SILVER MAPLE WAY" }, "geometry": { "type": "Point", "coordinates": [ -84.487784195276134, 38.049120788250612 ] } },
{ "type": "Feature", "properties": { "Status": "M", "Score": 100.000000, "Match_type": "A", "Match_addr": "922 DETROIT AVE", "Ref_ID": 33588, "User_fld": "0", "Addr_type": "Address", "ARC_Single": "922 DETROIT AVE", "Address": "922 DETROIT AVE" }, "geometry": { "type": "Point", "coordinates": [ -84.471181727341943, 38.040934372809133 ] } },
{ "type": "Feature", "properties": { "Status": "M", "Score": 100.000000, "Match_type": "A", "Match_addr": "447 BRADLEY CT", "Ref_ID": 99038, "User_fld": "0", "Addr_type": "Address", "ARC_Single": "447 BRADLEY CT", "Address": "447 BRADLEY CT" }, "geometry": { "type": "Point", "coordinates": [ -84.505945868482101, 38.068805919927527 ] } },
{ "type": "Feature", "properties": { "Status": "M", "Score": 100.000000, "Match_type": "A", "Match_addr": "837 BRYAN AVE", "Ref_ID": 49373, "User_fld": "0", "Addr_type": "Address", "ARC_Single": "837 BRYAN AVE", "Address": "837 BRYAN AVE" }, "geometry": { "type": "Point", "coordinates": [ -84.478731209364042, 38.056347887710544 ] } },
{ "type": "Feature", "properties": { "Status": "M", "Score": 100.000000, "Match_type": "A", "Match_addr": "455 LINDBERG DR", "Ref_ID": 97719, "User_fld": "0", "Addr_type": "Address", "ARC_Single": "455 LINDBERG DR", "Address": "455 LINDBERG DR" }, "geometry": { "type": "Point", "coordinates": [ -84.504749570832416, 38.067361184729513 ] } },
{ "type": "Feature", "properties": { "Status": "M", "Score": 100.000000, "Match_type": "A", "Match_addr": "751 FLORENCE AVE", "Ref_ID": 88864, "User_fld": "0", "Addr_type": "Address", "ARC_Single": "751 FLORENCE AVE", "Address": "751 FLORENCE AVE" }, "geometry": { "type": "Point", "coordinates": [ -84.507187652807815, 38.067052268717475 ] } },
{ "type": "Feature", "properties": { "Status": "M", "Score": 100.000000, "Match_type": "A", "Match_addr": "457 BRADLEY CT", "Ref_ID": 99251, "User_fld": "0", "Addr_type": "Address", "ARC_Single": "457 BRADLEY CT", "Address": "457 BRADLEY CT" }, "geometry": { "type": "Point", "coordinates": [ -84.505131132425717, 38.069087231038999 ] } },
{ "type": "Feature", "properties": { "Status": "M", "Score": 100.000000, "Match_type": "A", "Match_addr": "655 GEORGETOWN ST", "Ref_ID": 97614, "User_fld": "0", "Addr_type": "Address", "ARC_Single": "655 GEORGETOWN ST", "Address": "655 GEORGETOWN ST" }, "geometry": { "type": "Point", "coordinates": [ -84.503457783649893, 38.06610558518878 ] } },
{ "type": "Feature", "properties": { "Status": "M", "Score": 100.000000, "Match_type": "A", "Match_addr": "739 FLORIDA ST", "Ref_ID": 106760, "User_fld": "0", "Addr_type": "Address", "ARC_Single": "739 FLORIDA ST", "Address": "739 FLORIDA ST" }, "geometry": { "type": "Point", "coordinates": [ -84.484781709369827, 38.057539870669046 ] } },
{ "type": "Feature", "properties": { "Status": "M", "Score": 100.000000, "Match_type": "A", "Match_addr": "709 CHILES AVE", "Ref_ID": 97751, "User_fld": "0", "Addr_type": "Address", "ARC_Single": "709 CHILES AVE", "Address": "709 CHILES AVE" }, "geometry": { "type": "Point", "coordinates": [ -84.507977077727702, 38.065258612609988 ] } },
{ "type": "Feature", "properties": { "Status": "M", "Score": 100.000000, "Match_type": "A", "Match_addr": "346 CAMPSIE CT", "Ref_ID": 106101, "User_fld": "0", "Addr_type": "Address", "ARC_Single": "346 CAMPSIE CT", "Address": "346 CAMPSIE CT" }, "geometry": { "type": "Point", "coordinates": [ -84.487885479867359, 38.047821842805611 ] } },
{ "type": "Feature", "properties": { "Status": "M", "Score": 100.000000, "Match_type": "A", "Match_addr": "151 YORK ST", "Ref_ID": 3884, "User_fld": "0", "Addr_type": "Address", "ARC_Single": "151 YORK ST", "Address": "151 YORK ST" }, "geometry": { "type": "Point", "coordinates": [ -84.480536393600588, 38.054534027422548 ] } },
{ "type": "Feature", "properties": { "Status": "M", "Score": 100.000000, "Match_type": "A", "Match_addr": "826 N LIMESTONE", "Ref_ID": 1972, "User_fld": "0", "Addr_type": "Address", "ARC_Single": "826 N LIMESTONE", "Address": "826 N LIMESTONE" }, "geometry": { "type": "Point", "coordinates": [ -84.480128414620026, 38.057978576573419 ] } },
{ "type": "Feature", "properties": { "Status": "M", "Score": 100.000000, "Match_type": "A", "Match_addr": "168 DEVONIA AVE", "Ref_ID": 3085, "User_fld": "0", "Addr_type": "Address", "ARC_Single": "168 DEVONIA AVE", "Address": "168 DEVONIA AVE" }, "geometry": { "type": "Point", "coordinates": [ -84.47562867471963, 38.058853661863445 ] } },
{ "type": "Feature", "properties": { "Status": "M", "Score": 100.000000, "Match_type": "A", "Match_addr": "1406 HIGHLAWN AVE", "Ref_ID": 104203, "User_fld": "0", "Addr_type": "Address", "ARC_Single": "1406 HIGHLAWN AVE", "Address": "1406 HIGHLAWN AVE" }, "geometry": { "type": "Point", "coordinates": [ -84.470538746662115, 38.060208006179103 ] } },
{ "type": "Feature", "properties": { "Status": "M", "Score": 100.000000, "Match_type": "A", "Match_addr": "321 CHESTNUT ST", "Ref_ID": 105927, "User_fld": "0", "Addr_type": "Address", "ARC_Single": "321 CHESTNUT ST", "Address": "321 CHESTNUT ST" }, "geometry": { "type": "Point", "coordinates": [ -84.487225507020938, 38.045661137287496 ] } },
{ "type": "Feature", "properties": { "Status": "M", "Score": 100.000000, "Match_type": "A", "Match_addr": "323 CHESTNUT ST", "Ref_ID": 105929, "User_fld": "0", "Addr_type": "Address", "ARC_Single": "323 CHESTNUT ST", "Address": "323 CHESTNUT ST" }, "geometry": { "type": "Point", "coordinates": [ -84.487118801646375, 38.045735034772903 ] } },
{ "type": "Feature", "properties": { "Status": "M", "Score": 100.000000, "Match_type": "A", "Match_addr": "310 E SEVENTH ST", "Ref_ID": 100795, "User_fld": "0", "Addr_type": "Address", "ARC_Single": "310 E SEVENTH ST", "Address": "310 E SEVENTH ST" }, "geometry": { "type": "Point", "coordinates": [ -84.480660387511392, 38.051870562578038 ] } },
{ "type": "Feature", "properties": { "Status": "M", "Score": 100.000000, "Match_type": "A", "Match_addr": "247 RACE ST", "Ref_ID": 89673, "User_fld": "0", "Addr_type": "Address", "ARC_Single": "247 RACE ST", "Address": "247 RACE ST" }, "geometry": { "type": "Point", "coordinates": [ -84.486348853721097, 38.044186006264987 ] } },
{ "type": "Feature", "properties": { "Status": "M", "Score": 100.000000, "Match_type": "A", "Match_addr": "357 E SECOND ST", "Ref_ID": 76942, "User_fld": "0", "Addr_type": "Address", "ARC_Single": "357 E SECOND ST", "Address": "357 E SECOND ST" }, "geometry": { "type": "Point", "coordinates": [ -84.488601305706695, 38.044565793774716 ] } },
{ "type": "Feature", "properties": { "Status": "M", "Score": 100.000000, "Match_type": "A", "Match_addr": "330 E SECOND ST", "Ref_ID": 92726, "User_fld": "0", "Addr_type": "Address", "ARC_Single": "330 E SECOND ST", "Address": "330 E SECOND ST" }, "geometry": { "type": "Point", "coordinates": [ -84.489663772365574, 38.044702321686827 ] } },
{ "type": "Feature", "properties": { "Status": "M", "Score": 100.000000, "Match_type": "A", "Match_addr": "620 N MARTIN LUTHER KING BLVD", "Ref_ID": 91627, "User_fld": "0", "Addr_type": "Address", "ARC_Single": "620 N MARTIN LUTHER KING BLVD", "Address": "620 N MARTIN LUTHER KING BLVD" }, "geometry": { "type": "Point", "coordinates": [ -84.483616114185224, 38.052386754311335 ] } },
{ "type": "Feature", "properties": { "Status": "M", "Score": 100.000000, "Match_type": "A", "Match_addr": "568 BRECKENRIDGE ST", "Ref_ID": 84347, "User_fld": "0", "Addr_type": "Address", "ARC_Single": "568 BRECKENRIDGE ST", "Address": "568 BRECKENRIDGE ST" }, "geometry": { "type": "Point", "coordinates": [ -84.476901102698847, 38.04725959112811 ] } },
{ "type": "Feature", "properties": { "Status": "M", "Score": 100.000000, "Match_type": "A", "Match_addr": "157 E SEVENTH ST", "Ref_ID": 3959, "User_fld": "0", "Addr_type": "Address", "ARC_Single": "157 E SEVENTH ST", "Address": "157 E SEVENTH ST" }, "geometry": { "type": "Point", "coordinates": [ -84.482648945041603, 38.054282339360228 ] } },
{ "type": "Feature", "properties": { "Status": "M", "Score": 100.000000, "Match_type": "A", "Match_addr": "227 RACE ST", "Ref_ID": 92668, "User_fld": "0", "Addr_type": "Address", "ARC_Single": "227 RACE ST", "Address": "227 RACE ST" }, "geometry": { "type": "Point", "coordinates": [ -84.48697448917919, 38.043924366523434 ] } },
{ "type": "Feature", "properties": { "Status": "M", "Score": 100.000000, "Match_type": "A", "Match_addr": "245 RACE ST", "Ref_ID": 89670, "User_fld": "0", "Addr_type": "Address", "ARC_Single": "245 RACE ST", "Address": "245 RACE ST" }, "geometry": { "type": "Point", "coordinates": [ -84.486391839437985, 38.044158849093002 ] } },
{ "type": "Feature", "properties": { "Status": "M", "Score": 100.000000, "Match_type": "A", "Match_addr": "527 HARRY ST", "Ref_ID": 52598, "User_fld": "0", "Addr_type": "Address", "ARC_Single": "527 HARRY ST", "Address": "527 HARRY ST" }, "geometry": { "type": "Point", "coordinates": [ -84.48824084810704, 38.05343850142895 ] } },
{ "type": "Feature", "properties": { "Status": "M", "Score": 100.000000, "Match_type": "A", "Match_addr": "457 BRECKENRIDGE ST", "Ref_ID": 4288, "User_fld": "0", "Addr_type": "Address", "ARC_Single": "457 BRECKENRIDGE ST", "Address": "457 BRECKENRIDGE ST" }, "geometry": { "type": "Point", "coordinates": [ -84.478421510491216, 38.049233419282963 ] } },
{ "type": "Feature", "properties": { "Status": "M", "Score": 100.000000, "Match_type": "A", "Match_addr": "418 E SECOND ST", "Ref_ID": 92652, "User_fld": "0", "Addr_type": "Address", "ARC_Single": "418 E SECOND ST", "Address": "418 E SECOND ST" }, "geometry": { "type": "Point", "coordinates": [ -84.488006758288819, 38.04330775943928 ] } },
{ "type": "Feature", "properties": { "Status": "M", "Score": 100.000000, "Match_type": "A", "Match_addr": "170 E SEVENTH ST", "Ref_ID": 4015, "User_fld": "0", "Addr_type": "Address", "ARC_Single": "170 E SEVENTH ST", "Address": "170 E SEVENTH ST" }, "geometry": { "type": "Point", "coordinates": [ -84.48274247213925, 38.053836231243395 ] } },
{ "type": "Feature", "properties": { "Status": "M", "Score": 100.000000, "Match_type": "A", "Match_addr": "526 OHIO ST", "Ref_ID": 5177, "User_fld": "0", "Addr_type": "Address", "ARC_Single": "526 OHIO ST", "Address": "526 OHIO ST" }, "geometry": { "type": "Point", "coordinates": [ -84.48324818224232, 38.048969609605273 ] } },
{ "type": "Feature", "properties": { "Status": "M", "Score": 100.000000, "Match_type": "A", "Match_addr": "523 E THIRD ST", "Ref_ID": 96758, "User_fld": "0", "Addr_type": "Address", "ARC_Single": "523 E THIRD ST", "Address": "523 E THIRD ST" }, "geometry": { "type": "Point", "coordinates": [ -84.484191807760041, 38.044221328811474 ] } },
{ "type": "Feature", "properties": { "Status": "M", "Score": 100.000000, "Match_type": "A", "Match_addr": "203 E FIFTH ST", "Ref_ID": 91446, "User_fld": "0", "Addr_type": "Address", "ARC_Single": "203 E FIFTH ST", "Address": "203 E FIFTH ST" }, "geometry": { "type": "Point", "coordinates": [ -84.486410893570422, 38.05098180093276 ] } },
{ "type": "Feature", "properties": { "Status": "M", "Score": 100.000000, "Match_type": "A", "Match_addr": "163 ALABAMA AVE", "Ref_ID": 4019, "User_fld": "0", "Addr_type": "Address", "ARC_Single": "163 ALABAMA AVE", "Address": "163 ALABAMA AVE" }, "geometry": { "type": "Point", "coordinates": [ -84.48305857589466, 38.053724028487039 ] } },
{ "type": "Feature", "properties": { "Status": "M", "Score": 100.000000, "Match_type": "A", "Match_addr": "167 ALABAMA AVE", "Ref_ID": 3721, "User_fld": "0", "Addr_type": "Address", "ARC_Single": "167 ALABAMA AVE", "Address": "167 ALABAMA AVE" }, "geometry": { "type": "Point", "coordinates": [ -84.482958651065033, 38.053646108270549 ] } },
{ "type": "Feature", "properties": { "Status": "M", "Score": 100.000000, "Match_type": "A", "Match_addr": "151 BURNETT AVE", "Ref_ID": 36299, "User_fld": "0", "Addr_type": "Address", "ARC_Single": "151 BURNETT AVE", "Address": "151 BURNETT AVE" }, "geometry": { "type": "Point", "coordinates": [ -84.477732277465478, 38.057485087568672 ] } },
{ "type": "Feature", "properties": { "Status": "M", "Score": 100.000000, "Match_type": "A", "Match_addr": "468 N MARTIN LUTHER KING BLVD", "Ref_ID": 47403, "User_fld": "0", "Addr_type": "Address", "ARC_Single": "468 N MARTIN LUTHER KING BLVD", "Address": "468 N MARTIN LUTHER KING BLVD" }, "geometry": { "type": "Point", "coordinates": [ -84.486723395742857, 38.050652166412931 ] } },
{ "type": "Feature", "properties": { "Status": "M", "Score": 100.000000, "Match_type": "A", "Match_addr": "630 BRECKENRIDGE ST", "Ref_ID": 85902, "User_fld": "0", "Addr_type": "Address", "ARC_Single": "630 BRECKENRIDGE ST", "Address": "630 BRECKENRIDGE ST" }, "geometry": { "type": "Point", "coordinates": [ -84.475841118558677, 38.046496099809225 ] } },
{ "type": "Feature", "properties": { "Status": "M", "Score": 100.000000, "Match_type": "A", "Match_addr": "355 OHIO ST", "Ref_ID": 5460, "User_fld": "0", "Addr_type": "Address", "ARC_Single": "355 OHIO ST", "Address": "355 OHIO ST" }, "geometry": { "type": "Point", "coordinates": [ -84.486891934581394, 38.046879940202516 ] } },
{ "type": "Feature", "properties": { "Status": "M", "Score": 100.000000, "Match_type": "A", "Match_addr": "280 E LOUDON AVE", "Ref_ID": 4357, "User_fld": "0", "Addr_type": "Address", "ARC_Single": "280 E LOUDON AVE", "Address": "280 E LOUDON AVE" }, "geometry": { "type": "Point", "coordinates": [ -84.476588849429433, 38.052376816375101 ] } },
{ "type": "Feature", "properties": { "Status": "M", "Score": 100.000000, "Match_type": "A", "Match_addr": "218 E THIRD ST", "Ref_ID": 105989, "User_fld": "0", "Addr_type": "Address", "ARC_Single": "218 E THIRD ST", "Address": "218 E THIRD ST" }, "geometry": { "type": "Point", "coordinates": [ -84.490725938170158, 38.047375344546509 ] } },
{ "type": "Feature", "properties": { "Status": "M", "Score": 100.000000, "Match_type": "A", "Match_addr": "732 FLORENCE AVE", "Ref_ID": 98491, "User_fld": "0", "Addr_type": "Address", "ARC_Single": "732 FLORENCE AVE", "Address": "732 FLORENCE AVE" }, "geometry": { "type": "Point", "coordinates": [ -84.506371430625734, 38.066682554348439 ] } },
{ "type": "Feature", "properties": { "Status": "M", "Score": 100.000000, "Match_type": "A", "Match_addr": "228 E SEVENTH ST", "Ref_ID": 100784, "User_fld": "0", "Addr_type": "Address", "ARC_Single": "228 E SEVENTH ST", "Address": "228 E SEVENTH ST" }, "geometry": { "type": "Point", "coordinates": [ -84.481413474503384, 38.052490729471486 ] } },
{ "type": "Feature", "properties": { "Status": "M", "Score": 100.000000, "Match_type": "A", "Match_addr": "163 E THIRD ST", "Ref_ID": 106067, "User_fld": "0", "Addr_type": "Address", "ARC_Single": "163 E THIRD ST", "Address": "163 E THIRD ST" }, "geometry": { "type": "Point", "coordinates": [ -84.490834963796928, 38.04829938292 ] } },
{ "type": "Feature", "properties": { "Status": "M", "Score": 100.000000, "Match_type": "A", "Match_addr": "322 W THIRD ST", "Ref_ID": 4636, "User_fld": "0", "Addr_type": "Address", "ARC_Single": "322 W THIRD ST", "Address": "322 W THIRD ST" }, "geometry": { "type": "Point", "coordinates": [ -84.495215456809532, 38.051638483167153 ] } },
{ "type": "Feature", "properties": { "Status": "M", "Score": 100.000000, "Match_type": "A", "Match_addr": "626 N UPPER ST", "Ref_ID": 91932, "User_fld": "0", "Addr_type": "Address", "ARC_Single": "626 N UPPER ST", "Address": "626 N UPPER ST" }, "geometry": { "type": "Point", "coordinates": [ -84.486224835004705, 38.054988618360731 ] } },
{ "type": "Feature", "properties": { "Status": "M", "Score": 100.000000, "Match_type": "A", "Match_addr": "735 WHITNEY AVE", "Ref_ID": 88304, "User_fld": "0", "Addr_type": "Address", "ARC_Single": "735 WHITNEY AVE", "Address": "735 WHITNEY AVE" }, "geometry": { "type": "Point", "coordinates": [ -84.502866588989235, 38.059830579851493 ] } },
{ "type": "Feature", "properties": { "Status": "M", "Score": 100.000000, "Match_type": "A", "Match_addr": "825 WHITNEY AVE", "Ref_ID": 93169, "User_fld": "0", "Addr_type": "Address", "ARC_Single": "825 WHITNEY AVE", "Address": "825 WHITNEY AVE" }, "geometry": { "type": "Point", "coordinates": [ -84.504524102515205, 38.061200382120269 ] } },
{ "type": "Feature", "properties": { "Status": "M", "Score": 100.000000, "Match_type": "A", "Match_addr": "215 RACE ST", "Ref_ID": 92671, "User_fld": "0", "Addr_type": "Address", "ARC_Single": "215 RACE ST", "Address": "215 RACE ST" }, "geometry": { "type": "Point", "coordinates": [ -84.487288147476406, 38.043698526561343 ] } },
{ "type": "Feature", "properties": { "Status": "M", "Score": 100.000000, "Match_type": "A", "Match_addr": "780 BREATHITT AVE", "Ref_ID": 99140, "User_fld": "0", "Addr_type": "Address", "ARC_Single": "780 BREATHITT AVE", "Address": "780 BREATHITT AVE" }, "geometry": { "type": "Point", "coordinates": [ -84.50758509000994, 38.067004528680158 ] } },
{ "type": "Feature", "properties": { "Status": "M", "Score": 100.000000, "Match_type": "A", "Match_addr": "411 SHAWNEE AVE", "Ref_ID": 104094, "User_fld": "0", "Addr_type": "Address", "ARC_Single": "411 SHAWNEE AVE", "Address": "411 SHAWNEE AVE" }, "geometry": { "type": "Point", "coordinates": [ -84.468180032652157, 38.058401858598728 ] } },
{ "type": "Feature", "properties": { "Status": "M", "Score": 100.000000, "Match_type": "A", "Match_addr": "716 FLORENCE AVE", "Ref_ID": 93263, "User_fld": "0", "Addr_type": "Address", "ARC_Single": "716 FLORENCE AVE", "Address": "716 FLORENCE AVE" }, "geometry": { "type": "Point", "coordinates": [ -84.50611081705064, 38.066150750932557 ] } },
{ "type": "Feature", "properties": { "Status": "M", "Score": 100.000000, "Match_type": "A", "Match_addr": "353 ROSS AVE", "Ref_ID": 103202, "User_fld": "0", "Addr_type": "Address", "ARC_Single": "353 ROSS AVE", "Address": "353 ROSS AVE" }, "geometry": { "type": "Point", "coordinates": [ -84.496560693775464, 38.055788066967189 ] } },
{ "type": "Feature", "properties": { "Status": "M", "Score": 100.000000, "Match_type": "A", "Match_addr": "720 FLORENCE AVE", "Ref_ID": 93265, "User_fld": "0", "Addr_type": "Address", "ARC_Single": "720 FLORENCE AVE", "Address": "720 FLORENCE AVE" }, "geometry": { "type": "Point", "coordinates": [ -84.506211642640764, 38.06634109891624 ] } },
{ "type": "Feature", "properties": { "Status": "M", "Score": 100.000000, "Match_type": "A", "Match_addr": "350 E SEVENTH ST", "Ref_ID": 4710, "User_fld": "0", "Addr_type": "Address", "ARC_Single": "350 E SEVENTH ST", "Address": "350 E SEVENTH ST" }, "geometry": { "type": "Point", "coordinates": [ -84.479768386736581, 38.051167001763368 ] } },
{ "type": "Feature", "properties": { "Status": "M", "Score": 100.000000, "Match_type": "A", "Match_addr": "626 N MARTIN LUTHER KING BLVD", "Ref_ID": 91629, "User_fld": "0", "Addr_type": "Address", "ARC_Single": "626 N MARTIN LUTHER KING BLVD", "Address": "626 N MARTIN LUTHER KING BLVD" }, "geometry": { "type": "Point", "coordinates": [ -84.483488381987385, 38.052474875522869 ] } },
{ "type": "Feature", "properties": { "Status": "M", "Score": 100.000000, "Match_type": "A", "Match_addr": "355 E SECOND ST", "Ref_ID": 5612, "User_fld": "0", "Addr_type": "Address", "ARC_Single": "355 E SECOND ST", "Address": "355 E SECOND ST" }, "geometry": { "type": "Point", "coordinates": [ -84.488680553464917, 38.044639632007787 ] } },
{ "type": "Feature", "properties": { "Status": "M", "Score": 100.000000, "Match_type": "A", "Match_addr": "636 N LIMESTONE", "Ref_ID": 67218, "User_fld": "0", "Addr_type": "Address", "ARC_Single": "636 N LIMESTONE", "Address": "636 N LIMESTONE" }, "geometry": { "type": "Point", "coordinates": [ -84.484986894521754, 38.054418072143413 ] } },
{ "type": "Feature", "properties": { "Status": "M", "Score": 100.000000, "Match_type": "A", "Match_addr": "557 OHIO ST", "Ref_ID": 29119, "User_fld": "0", "Addr_type": "Address", "ARC_Single": "557 OHIO ST", "Address": "557 OHIO ST" }, "geometry": { "type": "Point", "coordinates": [ -84.482783512735224, 38.049876791175031 ] } },
{ "type": "Feature", "properties": { "Status": "M", "Score": 100.000000, "Match_type": "A", "Match_addr": "549 E THIRD ST", "Ref_ID": 88612, "User_fld": "0", "Addr_type": "Address", "ARC_Single": "549 E THIRD ST", "Address": "549 E THIRD ST" }, "geometry": { "type": "Point", "coordinates": [ -84.483043591776848, 38.043539903408664 ] } },
{ "type": "Feature", "properties": { "Status": "M", "Score": 100.000000, "Match_type": "A", "Match_addr": "319 RACE ST", "Ref_ID": 49922, "User_fld": "0", "Addr_type": "Address", "ARC_Single": "319 RACE ST", "Address": "319 RACE ST" }, "geometry": { "type": "Point", "coordinates": [ -84.485219777602879, 38.045003475050777 ] } },
{ "type": "Feature", "properties": { "Status": "M", "Score": 100.000000, "Match_type": "A", "Match_addr": "317 RACE ST", "Ref_ID": 58030, "User_fld": "0", "Addr_type": "Address", "ARC_Single": "317 RACE ST", "Address": "317 RACE ST" }, "geometry": { "type": "Point", "coordinates": [ -84.485292954640073, 38.044954876915504 ] } },
{ "type": "Feature", "properties": { "Status": "M", "Score": 100.000000, "Match_type": "A", "Match_addr": "415 CHESTNUT ST", "Ref_ID": 31771, "User_fld": "0", "Addr_type": "Address", "ARC_Single": "415 CHESTNUT ST", "Address": "415 CHESTNUT ST" }, "geometry": { "type": "Point", "coordinates": [ -84.485333517725536, 38.046949007452561 ] } },
{ "type": "Feature", "properties": { "Status": "M", "Score": 100.000000, "Match_type": "A", "Match_addr": "228 W SIXTH ST", "Ref_ID": 89240, "User_fld": "0", "Addr_type": "Address", "ARC_Single": "228 W SIXTH ST", "Address": "228 W SIXTH ST" }, "geometry": { "type": "Point", "coordinates": [ -84.488302091895477, 38.055317204466022 ] } },
{ "type": "Feature", "properties": { "Status": "M", "Score": 100.000000, "Match_type": "A", "Match_addr": "1126 OAK HILL DR", "Ref_ID": 91411, "User_fld": "0", "Addr_type": "Address", "ARC_Single": "1126 OAK HILL DR", "Address": "1126 OAK HILL DR" }, "geometry": { "type": "Point", "coordinates": [ -84.469016251208245, 38.054636487833008 ] } },
{ "type": "Feature", "properties": { "Status": "M", "Score": 100.000000, "Match_type": "A", "Match_addr": "306 E SEVENTH ST", "Ref_ID": 100783, "User_fld": "0", "Addr_type": "Address", "ARC_Single": "306 E SEVENTH ST", "Address": "306 E SEVENTH ST" }, "geometry": { "type": "Point", "coordinates": [ -84.480745622451948, 38.051957801125845 ] } },
{ "type": "Feature", "properties": { "Status": "M", "Score": 100.000000, "Match_type": "A", "Match_addr": "314 E SEVENTH ST", "Ref_ID": 3413, "User_fld": "0", "Addr_type": "Address", "ARC_Single": "314 E SEVENTH ST", "Address": "314 E SEVENTH ST" }, "geometry": { "type": "Point", "coordinates": [ -84.480518669001967, 38.051816506473109 ] } },
{ "type": "Feature", "properties": { "Status": "M", "Score": 100.000000, "Match_type": "A", "Match_addr": "546 E SEVENTH ST", "Ref_ID": 4575, "User_fld": "0", "Addr_type": "Address", "ARC_Single": "546 E SEVENTH ST", "Address": "546 E SEVENTH ST" }, "geometry": { "type": "Point", "coordinates": [ -84.476736516430378, 38.048674811631116 ] } },
{ "type": "Feature", "properties": { "Status": "M", "Score": 100.000000, "Match_type": "A", "Match_addr": "562 E SEVENTH ST", "Ref_ID": 5270, "User_fld": "0", "Addr_type": "Address", "ARC_Single": "562 E SEVENTH ST", "Address": "562 E SEVENTH ST" }, "geometry": { "type": "Point", "coordinates": [ -84.476004396241663, 38.048275870690745 ] } },
{ "type": "Feature", "properties": { "Status": "M", "Score": 100.000000, "Match_type": "A", "Match_addr": "632 OHIO ST", "Ref_ID": 4816, "User_fld": "0", "Addr_type": "Address", "ARC_Single": "632 OHIO ST", "Address": "632 OHIO ST" }, "geometry": { "type": "Point", "coordinates": [ -84.480943288600855, 38.05073971156888 ] } },
{ "type": "Feature", "properties": { "Status": "M", "Score": 100.000000, "Match_type": "A", "Match_addr": "176 YORK ST", "Ref_ID": 90735, "User_fld": "0", "Addr_type": "Address", "ARC_Single": "176 YORK ST", "Address": "176 YORK ST" }, "geometry": { "type": "Point", "coordinates": [ -84.481051160143238, 38.054430302932758 ] } },
{ "type": "Feature", "properties": { "Status": "M", "Score": 100.000000, "Match_type": "A", "Match_addr": "508 PEMBERTON ST", "Ref_ID": 81513, "User_fld": "0", "Addr_type": "Address", "ARC_Single": "508 PEMBERTON ST", "Address": "508 PEMBERTON ST" }, "geometry": { "type": "Point", "coordinates": [ -84.482328624436761, 38.047212378389389 ] } },
{ "type": "Feature", "properties": { "Status": "M", "Score": 100.000000, "Match_type": "A", "Match_addr": "304 E FIFTH ST", "Ref_ID": 26506, "User_fld": "0", "Addr_type": "Address", "ARC_Single": "304 E FIFTH ST", "Address": "304 E FIFTH ST" }, "geometry": { "type": "Point", "coordinates": [ -84.484281708960339, 38.048335877783408 ] } },
{ "type": "Feature", "properties": { "Status": "M", "Score": 100.000000, "Match_type": "A", "Match_addr": "707 DAKOTA ST", "Ref_ID": 49887, "User_fld": "0", "Addr_type": "Address", "ARC_Single": "707 DAKOTA ST", "Address": "707 DAKOTA ST" }, "geometry": { "type": "Point", "coordinates": [ -84.486184773118666, 38.057543689686739 ] } },
{ "type": "Feature", "properties": { "Status": "M", "Score": 100.000000, "Match_type": "A", "Match_addr": "441 HAWKINS AVE", "Ref_ID": 5454, "User_fld": "0", "Addr_type": "Address", "ARC_Single": "441 HAWKINS AVE", "Address": "441 HAWKINS AVE" }, "geometry": { "type": "Point", "coordinates": [ -84.48394625257221, 38.04691490488927 ] } },
{ "type": "Feature", "properties": { "Status": "T", "Score": 100.000000, "Match_type": "A", "Match_addr": "735 LANCASTER AVE", "Ref_ID": 97282, "User_fld": "0", "Addr_type": "Address", "ARC_Single": "735 LANCASTER AVE", "Address": "735 LANCASTER AVE" }, "geometry": { "type": "Point", "coordinates": [ -84.479834583894501, 38.053507572243916 ] } },
{ "type": "Feature", "properties": { "Status": "M", "Score": 100.000000, "Match_type": "A", "Match_addr": "324 OWSLEY AVE", "Ref_ID": 107181, "User_fld": "0", "Addr_type": "Address", "ARC_Single": "324 OWSLEY AVE", "Address": "324 OWSLEY AVE" }, "geometry": { "type": "Point", "coordinates": [ -84.473408472105746, 38.036252073541682 ] } },
{ "type": "Feature", "properties": { "Status": "M", "Score": 100.000000, "Match_type": "A", "Match_addr": "308 W SIXTH ST", "Ref_ID": 107000, "User_fld": "0", "Addr_type": "Address", "ARC_Single": "308 W SIXTH ST", "Address": "308 W SIXTH ST" }, "geometry": { "type": "Point", "coordinates": [ -84.48849182258148, 38.055487497642105 ] } },
{ "type": "Feature", "properties": { "Status": "M", "Score": 100.000000, "Match_type": "A", "Match_addr": "551 CHESTNUT ST", "Ref_ID": 65845, "User_fld": "0", "Addr_type": "Address", "ARC_Single": "551 CHESTNUT ST", "Address": "551 CHESTNUT ST" }, "geometry": { "type": "Point", "coordinates": [ -84.482235212794123, 38.049128771120373 ] } },
{ "type": "Feature", "properties": { "Status": "M", "Score": 100.000000, "Match_type": "A", "Match_addr": "196 EDDIE ST", "Ref_ID": 90679, "User_fld": "0", "Addr_type": "Address", "ARC_Single": "196 EDDIE ST", "Address": "196 EDDIE ST" }, "geometry": { "type": "Point", "coordinates": [ -84.481442177499005, 38.053692130057023 ] } },
{ "type": "Feature", "properties": { "Status": "M", "Score": 100.000000, "Match_type": "A", "Match_addr": "338 CAMPSIE CT", "Ref_ID": 106003, "User_fld": "0", "Addr_type": "Address", "ARC_Single": "338 CAMPSIE CT", "Address": "338 CAMPSIE CT" }, "geometry": { "type": "Point", "coordinates": [ -84.488291608000296, 38.047532544388069 ] } },
{ "type": "Feature", "properties": { "Status": "M", "Score": 100.000000, "Match_type": "A", "Match_addr": "743 FLORIDA ST", "Ref_ID": 106779, "User_fld": "0", "Addr_type": "Address", "ARC_Single": "743 FLORIDA ST", "Address": "743 FLORIDA ST" }, "geometry": { "type": "Point", "coordinates": [ -84.484629772891239, 38.057646396688966 ] } },
{ "type": "Feature", "properties": { "Status": "M", "Score": 100.000000, "Match_type": "A", "Match_addr": "212 RACE ST", "Ref_ID": 84718, "User_fld": "0", "Addr_type": "Address", "ARC_Single": "212 RACE ST", "Address": "212 RACE ST" }, "geometry": { "type": "Point", "coordinates": [ -84.486968548948028, 38.043302900728534 ] } },
{ "type": "Feature", "properties": { "Status": "M", "Score": 100.000000, "Match_type": "A", "Match_addr": "512 WILLY ST", "Ref_ID": 106198, "User_fld": "0", "Addr_type": "Address", "ARC_Single": "512 WILLY ST", "Address": "512 WILLY ST" }, "geometry": { "type": "Point", "coordinates": [ -84.492765610889862, 38.057395516178133 ] } },
{ "type": "Feature", "properties": { "Status": "M", "Score": 100.000000, "Match_type": "A", "Match_addr": "763 DAKOTA ST", "Ref_ID": 3115, "User_fld": "0", "Addr_type": "Address", "ARC_Single": "763 DAKOTA ST", "Address": "763 DAKOTA ST" }, "geometry": { "type": "Point", "coordinates": [ -84.484813874124143, 38.058502545460648 ] } },
{ "type": "Feature", "properties": { "Status": "M", "Score": 100.000000, "Match_type": "A", "Match_addr": "820 IDLEWILD CT", "Ref_ID": 79768, "User_fld": "0", "Addr_type": "Address", "ARC_Single": "820 IDLEWILD CT", "Address": "820 IDLEWILD CT" }, "geometry": { "type": "Point", "coordinates": [ -84.474278886985516, 38.052479354831092 ] } }
]
}
