{
"type": "FeatureCollection",
"crs": { "type": "name", "properties": { "name": "urn:ogc:def:crs:OGC:1.3:CRS84" } },
                                                                                
"features": [
{ "type": "Feature", "properties": { "ParcelNo": 26681800, "Number": "700", "Street": "Addison Ave", "CouncilDistrict": 11, "PropertyType": "R", "NoWaterService": "", "CodeEnforcementCase": "Yes", "ReportedtoCity": "Yes", "Yes": -84.527270, "y": 38.040142, "Address": "700 ADDISON AVE" }, "geometry": { "type": "Point", "coordinates": [ -84.52727006, 38.0401416 ] } },
{ "type": "Feature", "properties": { "ParcelNo": 11911525, "Number": "146", "Street": "Alabama Ave", "CouncilDistrict": 1, "PropertyType": "R", "NoWaterService": "", "CodeEnforcementCase": "Yes", "ReportedtoCity": "Yes", "Yes": -84.483991, "y": 38.053739, "Address": "146 ALABAMA AVE" }, "geometry": { "type": "Point", "coordinates": [ -84.48399074, 38.05373948 ] } },
{ "type": "Feature", "properties": { "ParcelNo": 25424300, "Number": "2278", "Street": "Allen Dr", "CouncilDistrict": 6, "PropertyType": "R", "NoWaterService": "", "CodeEnforcementCase": "Yes", "ReportedtoCity": "Yes", "Yes": -84.458682, "y": 38.083124, "Address": "2278 ALLEN DR" }, "geometry": { "type": "Point", "coordinates": [ -84.45868198, 38.0831236 ] } },
{ "type": "Feature", "properties": { "ParcelNo": 42551500, "Number": "340", "Street": "American Ave", "CouncilDistrict": 3, "PropertyType": "R", "NoWaterService": "", "CodeEnforcementCase": "Yes", "ReportedtoCity": "Yes", "Yes": -84.519197, "y": 38.034645, "Address": "340 AMERICAN AVE" }, "geometry": { "type": "Point", "coordinates": [ -84.51919654, 38.03464451 ] } },
{ "type": "Feature", "properties": { "ParcelNo": 11513700, "Number": "1464", "Street": "Anniston Dr", "CouncilDistrict": 6, "PropertyType": "R", "NoWaterService": "", "CodeEnforcementCase": "Yes", "ReportedtoCity": "Yes", "Yes": -84.438314, "y": 38.057358, "Address": "1464 ANNISTON DR" }, "geometry": { "type": "Point", "coordinates": [ -84.43831435, 38.05735834 ] } },
{ "type": "Feature", "properties": { "ParcelNo": 16611750, "Number": "529", "Street": "Anniston Dr", "CouncilDistrict": 6, "PropertyType": "R", "NoWaterService": "", "CodeEnforcementCase": "", "ReportedtoCity": "Yes", "Yes": -84.442396, "y": 38.063870, "Address": "529 ANNISTON DR" }, "geometry": { "type": "Point", "coordinates": [ -84.44239596, 38.06386973 ] } },
{ "type": "Feature", "properties": { "ParcelNo": 11580600, "Number": "576-578", "Street": "Anniston Dr", "CouncilDistrict": 6, "PropertyType": "R", "NoWaterService": "Yes", "CodeEnforcementCase": "", "ReportedtoCity": "Yes", "Yes": -84.441677, "y": 38.062374, "Address": "576 ANNISTON DR" }, "geometry": { "type": "Point", "coordinates": [ -84.44167665, 38.06237418 ] } },
{ "type": "Feature", "properties": { "ParcelNo": 20275600, "Number": "872", "Street": "Apache Trl", "CouncilDistrict": 10, "PropertyType": "R", "NoWaterService": "Yes", "CodeEnforcementCase": "Yes", "ReportedtoCity": "", "Yes": -84.557590, "y": 38.010363, "Address": "872 APACHE TRL" }, "geometry": { "type": "Point", "coordinates": [ -84.55758967, 38.01036328 ] } },
{ "type": "Feature", "properties": { "ParcelNo": 20965168, "Number": "3704", "Street": "Appian Way", "CouncilDistrict": 8, "PropertyType": "R", "NoWaterService": "Yes", "CodeEnforcementCase": "Yes", "ReportedtoCity": "", "Yes": -84.491196, "y": 37.974349, "Address": "3704 APPIAN WAY" }, "geometry": { "type": "Point", "coordinates": [ -84.49119579, 37.97434923 ] } },
{ "type": "Feature", "properties": { "ParcelNo": 38178050, "Number": "1040", "Street": "Applecross Dr", "CouncilDistrict": 2, "PropertyType": "R", "NoWaterService": "", "CodeEnforcementCase": "Yes", "ReportedtoCity": "Yes", "Yes": -84.525997, "y": 38.100060, "Address": "1040 APPLECROSS DR" }, "geometry": { "type": "Point", "coordinates": [ -84.52599676, 38.10005962 ] } },
{ "type": "Feature", "properties": { "ParcelNo": 10038620, "Number": "3649", "Street": "Arbor Dr", "CouncilDistrict": 8, "PropertyType": "R", "NoWaterService": "", "CodeEnforcementCase": "Yes", "ReportedtoCity": "Yes", "Yes": -84.476395, "y": 37.968862, "Address": "3649 ARBOR DR" }, "geometry": { "type": "Point", "coordinates": [ -84.47639467, 37.96886192 ] } },
{ "type": "Feature", "properties": { "ParcelNo": 12780275, "Number": "1244", "Street": "Ascot Park", "CouncilDistrict": 8, "PropertyType": "R", "NoWaterService": "Yes", "CodeEnforcementCase": "Yes", "ReportedtoCity": "", "Yes": -84.479601, "y": 37.976127, "Address": "1244 ASCOT PARK" }, "geometry": { "type": "Point", "coordinates": [ -84.47960138, 37.97612703 ] } },
{ "type": "Feature", "properties": { "ParcelNo": 15239425, "Number": "301", "Street": "Ash St", "CouncilDistrict": 2, "PropertyType": "R", "NoWaterService": "", "CodeEnforcementCase": "Yes", "ReportedtoCity": "Yes", "Yes": -84.506847, "y": 38.063164, "Address": "301 ASH ST" }, "geometry": { "type": "Point", "coordinates": [ -84.50684657, 38.06316354 ] } },
{ "type": "Feature", "properties": { "ParcelNo": 14865700, "Number": "416", "Street": "Ash St", "CouncilDistrict": 2, "PropertyType": "R", "NoWaterService": "", "CodeEnforcementCase": "Yes", "ReportedtoCity": "Yes", "Yes": -84.504955, "y": 38.063446, "Address": "416 ASH ST" }, "geometry": { "type": "Point", "coordinates": [ -84.50495535, 38.06344574 ] } },
{ "type": "Feature", "properties": { "ParcelNo": 14693400, "Number": "453", "Street": "Ashland Ter", "CouncilDistrict": 3, "PropertyType": "R", "NoWaterService": "", "CodeEnforcementCase": "Yes", "ReportedtoCity": "Yes", "Yes": -84.492775, "y": 38.029795, "Address": "453 ASHLAND TER" }, "geometry": { "type": "Point", "coordinates": [ -84.49277519, 38.02979531 ] } },
{ "type": "Feature", "properties": { "ParcelNo": 12140800, "Number": "470", "Street": "Ashland Ter", "CouncilDistrict": 3, "PropertyType": "R", "NoWaterService": "", "CodeEnforcementCase": "", "ReportedtoCity": "Yes", "Yes": -84.494021, "y": 38.029985, "Address": "470 ASHLAND TER" }, "geometry": { "type": "Point", "coordinates": [ -84.49402131, 38.02998529 ] } },
{ "type": "Feature", "properties": { "ParcelNo": 10037650, "Number": "1816", "Street": "Barksdale Dr", "CouncilDistrict": 1, "PropertyType": "R", "NoWaterService": "", "CodeEnforcementCase": "Yes", "ReportedtoCity": "Yes", "Yes": -84.470974, "y": 38.086537, "Address": "1816 BARKSDALE DR" }, "geometry": { "type": "Point", "coordinates": [ -84.47097389, 38.08653665 ] } },
{ "type": "Feature", "properties": { "ParcelNo": 12155542, "Number": "416", "Street": "Barrister Ct", "CouncilDistrict": 4, "PropertyType": "R", "NoWaterService": "Yes", "CodeEnforcementCase": "Yes", "ReportedtoCity": "", "Yes": -84.504287, "y": 37.983504, "Address": "416 BARRISTER CT" }, "geometry": { "type": "Point", "coordinates": [ -84.50428725, 37.98350372 ] } },
{ "type": "Feature", "properties": { "ParcelNo": 38200500, "Number": "3364", "Street": "Bay Springs Park", "CouncilDistrict": 12, "PropertyType": "R", "NoWaterService": "", "CodeEnforcementCase": "", "ReportedtoCity": "Yes", "Yes": -84.390973, "y": 38.014915, "Address": "3364 BAY SPRINGS PARK" }, "geometry": { "type": "Point", "coordinates": [ -84.39097319, 38.0149147 ] } },
{ "type": "Feature", "properties": { "ParcelNo": 19965360, "Number": "3199", "Street": "Beaumont Centre Cir", "CouncilDistrict": 10, "PropertyType": "C", "NoWaterService": "Yes", "CodeEnforcementCase": "Yes", "ReportedtoCity": "", "Yes": -84.560436, "y": 38.020942, "Address": "3199 BEAUMONT CENTRE CIR" }, "geometry": { "type": "Point", "coordinates": [ -84.56043625, 38.02094201 ] } },
{ "type": "Feature", "properties": { "ParcelNo": 12362950, "Number": "781", "Street": "Bennett Ave", "CouncilDistrict": 11, "PropertyType": "R", "NoWaterService": "", "CodeEnforcementCase": "Yes", "ReportedtoCity": "Yes", "Yes": -84.517698, "y": 38.046891, "Address": "781 BENNETT AVE" }, "geometry": { "type": "Point", "coordinates": [ -84.51769848, 38.04689134 ] } },
{ "type": "Feature", "properties": { "ParcelNo": 16220900, "Number": "1339", "Street": "Bordeaux Ct", "CouncilDistrict": 11, "PropertyType": "R", "NoWaterService": "Yes", "CodeEnforcementCase": "Yes", "ReportedtoCity": "", "Yes": -84.556536, "y": 38.049011, "Address": "1339 BORDEAUX CT" }, "geometry": { "type": "Point", "coordinates": [ -84.55653601, 38.04901117 ] } },
{ "type": "Feature", "properties": { "ParcelNo": 16429400, "Number": "1320", "Street": "Bordeaux Dr", "CouncilDistrict": 11, "PropertyType": "R", "NoWaterService": "Yes", "CodeEnforcementCase": "Yes", "ReportedtoCity": "", "Yes": -84.555149, "y": 38.049289, "Address": "1320 BORDEAUX DR" }, "geometry": { "type": "Point", "coordinates": [ -84.55514863, 38.04928946 ] } },
{ "type": "Feature", "properties": { "ParcelNo": 14145100, "Number": "454", "Street": "Bradley Ct", "CouncilDistrict": 2, "PropertyType": "R", "NoWaterService": "", "CodeEnforcementCase": "", "ReportedtoCity": "Yes", "Yes": -84.505440, "y": 38.068689, "Address": "454 BRADLEY CT" }, "geometry": { "type": "Point", "coordinates": [ -84.50543952, 38.06868898 ] } },
{ "type": "Feature", "properties": { "ParcelNo": 12941300, "Number": "461", "Street": "Bradley Ct", "CouncilDistrict": 2, "PropertyType": "R", "NoWaterService": "", "CodeEnforcementCase": "", "ReportedtoCity": "Yes", "Yes": -84.504816, "y": 38.069221, "Address": "461 BRADLEY CT" }, "geometry": { "type": "Point", "coordinates": [ -84.50481586, 38.06922082 ] } },
{ "type": "Feature", "properties": { "ParcelNo": 14591700, "Number": "104", "Street": "Brown Ave", "CouncilDistrict": 5, "PropertyType": "R", "NoWaterService": "", "CodeEnforcementCase": "Yes", "ReportedtoCity": "Yes", "Yes": -84.460886, "y": 38.041927, "Address": "104 BROWN AVE" }, "geometry": { "type": "Point", "coordinates": [ -84.46088605, 38.04192658 ] } },
{ "type": "Feature", "properties": { "ParcelNo": 44692105, "Number": "147-149", "Street": "Burley Ave", "CouncilDistrict": 3, "PropertyType": "R", "NoWaterService": "", "CodeEnforcementCase": "", "ReportedtoCity": "Yes", "Yes": -84.516777, "y": 38.034268, "Address": "147 BURLEY AVE" }, "geometry": { "type": "Point", "coordinates": [ -84.5167769, 38.03426812 ] } },
{ "type": "Feature", "properties": { "ParcelNo": 12380950, "Number": "2441", "Street": "Butternut Hill Ct", "CouncilDistrict": 7, "PropertyType": "R", "NoWaterService": "Yes", "CodeEnforcementCase": "Yes", "ReportedtoCity": "", "Yes": -84.452490, "y": 38.014978, "Address": "2441 BUTTERNUT HILL CT" }, "geometry": { "type": "Point", "coordinates": [ -84.45249037, 38.0149782 ] } },
{ "type": "Feature", "properties": { "ParcelNo": 14160700, "Number": "158", "Street": "Carlisle Ave", "CouncilDistrict": 1, "PropertyType": "R", "NoWaterService": "", "CodeEnforcementCase": "", "ReportedtoCity": "Yes", "Yes": -84.474977, "y": 38.059667, "Address": "158 CARLISLE AVE" }, "geometry": { "type": "Point", "coordinates": [ -84.47497724, 38.05966687 ] } },
{ "type": "Feature", "properties": { "ParcelNo": 10546010, "Number": "183", "Street": "Carlisle Ave", "CouncilDistrict": 1, "PropertyType": "R", "NoWaterService": "", "CodeEnforcementCase": "Yes", "ReportedtoCity": "Yes", "Yes": -84.473885, "y": 38.059523, "Address": "183 CARLISLE AVE" }, "geometry": { "type": "Point", "coordinates": [ -84.47388541, 38.05952255 ] } },
{ "type": "Feature", "properties": { "ParcelNo": 15416900, "Number": "213", "Street": "Carlisle Ave", "CouncilDistrict": 1, "PropertyType": "R", "NoWaterService": "", "CodeEnforcementCase": "Yes", "ReportedtoCity": "Yes", "Yes": -84.473493, "y": 38.059159, "Address": "213 CARLISLE AVE" }, "geometry": { "type": "Point", "coordinates": [ -84.47349336, 38.05915851 ] } },
{ "type": "Feature", "properties": { "ParcelNo": 10152901, "Number": "3241", "Street": "Carriage Ln", "CouncilDistrict": 8, "PropertyType": "R", "NoWaterService": "Yes", "CodeEnforcementCase": "Yes", "ReportedtoCity": "", "Yes": -84.467668, "y": 37.987308, "Address": "3241 CARRIAGE LN" }, "geometry": { "type": "Point", "coordinates": [ -84.46766775, 37.98730849 ] } },
{ "type": "Feature", "properties": { "ParcelNo": 13620840, "Number": "3268", "Street": "Carriage Ln", "CouncilDistrict": 8, "PropertyType": "R", "NoWaterService": "Yes", "CodeEnforcementCase": "Yes", "ReportedtoCity": "", "Yes": -84.465368, "y": 37.986746, "Address": "3268 CARRIAGE LN" }, "geometry": { "type": "Point", "coordinates": [ -84.46536808, 37.98674602 ] } },
{ "type": "Feature", "properties": { "ParcelNo": 13620841, "Number": "3272", "Street": "Carriage Ln", "CouncilDistrict": 8, "PropertyType": "R", "NoWaterService": "Yes", "CodeEnforcementCase": "Yes", "ReportedtoCity": "Yes", "Yes": -84.465067, "y": 37.986662, "Address": "3272 CARRIAGE LN" }, "geometry": { "type": "Point", "coordinates": [ -84.46506653, 37.98666187 ] } },
{ "type": "Feature", "properties": { "ParcelNo": 10164800, "Number": "267", "Street": "Castlewood Dr", "CouncilDistrict": 1, "PropertyType": "R", "NoWaterService": "Yes", "CodeEnforcementCase": "Yes", "ReportedtoCity": "Yes", "Yes": -84.474655, "y": 38.053160, "Address": "267 CASTLEWOOD DR" }, "geometry": { "type": "Point", "coordinates": [ -84.47465485, 38.0531599 ] } },
{ "type": "Feature", "properties": { "ParcelNo": 20008350, "Number": "2912", "Street": "Cedarcrest Dr", "CouncilDistrict": 5, "PropertyType": "R", "NoWaterService": "", "CodeEnforcementCase": "Yes", "ReportedtoCity": "Yes", "Yes": -84.457868, "y": 38.003130, "Address": "2912 CEDARCREST DR" }, "geometry": { "type": "Point", "coordinates": [ -84.45786808, 38.00312964 ] } },
{ "type": "Feature", "properties": { "ParcelNo": 13419600, "Number": "1284", "Street": "Centre Pkwy", "CouncilDistrict": 8, "PropertyType": "R", "NoWaterService": "Yes", "CodeEnforcementCase": "Yes", "ReportedtoCity": "", "Yes": -84.477570, "y": 37.979517, "Address": "1284 CENTRE PKWY" }, "geometry": { "type": "Point", "coordinates": [ -84.47757044, 37.9795168 ] } },
{ "type": "Feature", "properties": { "ParcelNo": 16861500, "Number": "1100", "Street": "Centurian Rd", "CouncilDistrict": 8, "PropertyType": "R", "NoWaterService": "Yes", "CodeEnforcementCase": "Yes", "ReportedtoCity": "", "Yes": -84.485034, "y": 37.983699, "Address": "1100 CENTURIAN RD" }, "geometry": { "type": "Point", "coordinates": [ -84.48503356, 37.98369944 ] } },
{ "type": "Feature", "properties": { "ParcelNo": 16745800, "Number": "726", "Street": "Charles Ave", "CouncilDistrict": 2, "PropertyType": "R", "NoWaterService": "", "CodeEnforcementCase": "", "ReportedtoCity": "Yes", "Yes": -84.502352, "y": 38.059919, "Address": "726 CHARLES AVE" }, "geometry": { "type": "Point", "coordinates": [ -84.50235158, 38.0599185 ] } },
{ "type": "Feature", "properties": { "ParcelNo": 16324000, "Number": "749", "Street": "Charles Ave", "CouncilDistrict": 2, "PropertyType": "R", "NoWaterService": "", "CodeEnforcementCase": "Yes", "ReportedtoCity": "Yes", "Yes": -84.502300, "y": 38.060830, "Address": "749 CHARLES AVE" }, "geometry": { "type": "Point", "coordinates": [ -84.5023003, 38.0608303 ] } },
{ "type": "Feature", "properties": { "ParcelNo": 20120880, "Number": "381", "Street": "Chase Pl", "CouncilDistrict": 10, "PropertyType": "R", "NoWaterService": "", "CodeEnforcementCase": "Yes", "ReportedtoCity": "Yes", "Yes": -84.536332, "y": 38.002082, "Address": "381 CHASE PL" }, "geometry": { "type": "Point", "coordinates": [ -84.53633233, 38.00208172 ] } },
{ "type": "Feature", "properties": { "ParcelNo": 25855750, "Number": "847", "Street": "Cheryl Ln", "CouncilDistrict": 11, "PropertyType": "R", "NoWaterService": "Yes", "CodeEnforcementCase": "Yes", "ReportedtoCity": "", "Yes": -84.537191, "y": 38.033451, "Address": "847 CHERYL LN" }, "geometry": { "type": "Point", "coordinates": [ -84.53719058, 38.03345122 ] } },
{ "type": "Feature", "properties": { "ParcelNo": 11076800, "Number": "415", "Street": "Chestnut St", "CouncilDistrict": 1, "PropertyType": "R", "NoWaterService": "", "CodeEnforcementCase": "Yes", "ReportedtoCity": "Yes", "Yes": -84.485338, "y": 38.046956, "Address": "415 CHESTNUT ST" }, "geometry": { "type": "Point", "coordinates": [ -84.48533802, 38.04695632 ] } },
{ "type": "Feature", "properties": { "ParcelNo": 16514800, "Number": "455", "Street": "Chestnut St", "CouncilDistrict": 1, "PropertyType": "R", "NoWaterService": "", "CodeEnforcementCase": "Yes", "ReportedtoCity": "Yes", "Yes": -84.484298, "y": 38.047683, "Address": "455 CHESTNUT ST" }, "geometry": { "type": "Point", "coordinates": [ -84.48429839, 38.04768278 ] } },
{ "type": "Feature", "properties": { "ParcelNo": 14246700, "Number": "463", "Street": "Chestnut St", "CouncilDistrict": 1, "PropertyType": "R", "NoWaterService": "Yes", "CodeEnforcementCase": "Yes", "ReportedtoCity": "Yes", "Yes": -84.484037, "y": 38.047848, "Address": "463 CHESTNUT ST" }, "geometry": { "type": "Point", "coordinates": [ -84.48403715, 38.04784812 ] } },
{ "type": "Feature", "properties": { "ParcelNo": 10363800, "Number": "517", "Street": "Chestnut St", "CouncilDistrict": 1, "PropertyType": "R", "NoWaterService": "", "CodeEnforcementCase": "Yes", "ReportedtoCity": "Yes", "Yes": -84.483154, "y": 38.048504, "Address": "517 CHESTNUT ST" }, "geometry": { "type": "Point", "coordinates": [ -84.48315425, 38.04850355 ] } },
{ "type": "Feature", "properties": { "ParcelNo": 12975300, "Number": "573", "Street": "Chestnut St", "CouncilDistrict": 1, "PropertyType": "R", "NoWaterService": "", "CodeEnforcementCase": "Yes", "ReportedtoCity": "Yes", "Yes": -84.481578, "y": 38.049407, "Address": "573 CHESTNUT ST" }, "geometry": { "type": "Point", "coordinates": [ -84.48157776, 38.04940697 ] } },
{ "type": "Feature", "properties": { "ParcelNo": 16120050, "Number": "749", "Street": "Chiles Ave", "CouncilDistrict": 2, "PropertyType": "R", "NoWaterService": "", "CodeEnforcementCase": "Yes", "ReportedtoCity": "Yes", "Yes": -84.508757, "y": 38.066460, "Address": "749 CHILES AVE" }, "geometry": { "type": "Point", "coordinates": [ -84.50875718, 38.06646026 ] } },
{ "type": "Feature", "properties": { "ParcelNo": 13707700, "Number": "316", "Street": "Chinoe Rd", "CouncilDistrict": 5, "PropertyType": "R", "NoWaterService": "Yes", "CodeEnforcementCase": "Yes", "ReportedtoCity": "", "Yes": -84.479277, "y": 38.022764, "Address": "316 CHINOE RD" }, "geometry": { "type": "Point", "coordinates": [ -84.47927653, 38.0227644 ] } },
{ "type": "Feature", "properties": { "ParcelNo": 13055660, "Number": "126", "Street": "Clay Ave", "CouncilDistrict": 5, "PropertyType": "M", "NoWaterService": "Yes", "CodeEnforcementCase": "Yes", "ReportedtoCity": "", "Yes": -84.486435, "y": 38.035213, "Address": "126 CLAY AVE" }, "geometry": { "type": "Point", "coordinates": [ -84.48643483, 38.03521312 ] } },
{ "type": "Feature", "properties": { "ParcelNo": 22918522, "Number": "4233", "Street": "Clemens Dr", "CouncilDistrict": 10, "PropertyType": "R", "NoWaterService": "", "CodeEnforcementCase": "Yes", "ReportedtoCity": "Yes", "Yes": -84.576808, "y": 37.990980, "Address": "4233 CLEMENS DR" }, "geometry": { "type": "Point", "coordinates": [ -84.57680843, 37.99097951 ] } },
{ "type": "Feature", "properties": { "ParcelNo": 22918621, "Number": "4285", "Street": "Clemens Dr", "CouncilDistrict": 10, "PropertyType": "R", "NoWaterService": "Yes", "CodeEnforcementCase": "Yes", "ReportedtoCity": "Yes", "Yes": -84.578051, "y": 37.988527, "Address": "4285 CLEMENS DR" }, "geometry": { "type": "Point", "coordinates": [ -84.57805096, 37.98852673 ] } },
{ "type": "Feature", "properties": { "ParcelNo": 38031810, "Number": "132", "Street": "Clover Valley Dr", "CouncilDistrict": 2, "PropertyType": "R", "NoWaterService": "", "CodeEnforcementCase": "Yes", "ReportedtoCity": "Yes", "Yes": -84.552746, "y": 38.082335, "Address": "132 CLOVER VALLEY DR" }, "geometry": { "type": "Point", "coordinates": [ -84.55274563, 38.08233475 ] } },
{ "type": "Feature", "properties": { "ParcelNo": 20091350, "Number": "4320", "Street": "Cobblestone Knoll Dr", "CouncilDistrict": 9, "PropertyType": "R", "NoWaterService": "Yes", "CodeEnforcementCase": "Yes", "ReportedtoCity": "Yes", "Yes": -84.530753, "y": 37.971378, "Address": "4320 COBBLESTONE KNOLL DR" }, "geometry": { "type": "Point", "coordinates": [ -84.53075335, 37.97137802 ] } },
{ "type": "Feature", "properties": { "ParcelNo": 24716486, "Number": "3500", "Street": "Coltneck Ln", "CouncilDistrict": 5, "PropertyType": "R", "NoWaterService": "", "CodeEnforcementCase": "Yes", "ReportedtoCity": "Yes", "Yes": -84.480060, "y": 37.999226, "Address": "3500 COLTNECK LN" }, "geometry": { "type": "Point", "coordinates": [ -84.48006037, 37.99922621 ] } },
{ "type": "Feature", "properties": { "ParcelNo": 10146200, "Number": "553", "Street": "Columbia Ave", "CouncilDistrict": 3, "PropertyType": "R", "NoWaterService": "Yes", "CodeEnforcementCase": "Yes", "ReportedtoCity": "Yes", "Yes": -84.497244, "y": 38.031122, "Address": "553 COLUMBIA AVE" }, "geometry": { "type": "Point", "coordinates": [ -84.49724365, 38.0311216 ] } },
{ "type": "Feature", "properties": { "ParcelNo": 11361500, "Number": "624", "Street": "Columbia Ave", "CouncilDistrict": 3, "PropertyType": "R", "NoWaterService": "Yes", "CodeEnforcementCase": "Yes", "ReportedtoCity": "", "Yes": -84.496105, "y": 38.029480, "Address": "624 COLUMBIA AVE" }, "geometry": { "type": "Point", "coordinates": [ -84.49610532, 38.0294797 ] } },
{ "type": "Feature", "properties": { "ParcelNo": 10048960, "Number": "429", "Street": "Conley St", "CouncilDistrict": 1, "PropertyType": "R", "NoWaterService": "", "CodeEnforcementCase": "Yes", "ReportedtoCity": "Yes", "Yes": -84.483950, "y": 38.046381, "Address": "429 CONLEY ST" }, "geometry": { "type": "Point", "coordinates": [ -84.48395044, 38.04638128 ] } },
{ "type": "Feature", "properties": { "ParcelNo": 10124652, "Number": "129", "Street": "Constitution St", "CouncilDistrict": 1, "PropertyType": "E", "NoWaterService": "Yes", "CodeEnforcementCase": "", "ReportedtoCity": "Yes", "Yes": -84.492747, "y": 38.048178, "Address": "129 CONSTITUTION ST" }, "geometry": { "type": "Point", "coordinates": [ -84.4927467, 38.0481781 ] } },
{ "type": "Feature", "properties": { "ParcelNo": 12206800, "Number": "133", "Street": "Constitution St", "CouncilDistrict": 1, "PropertyType": "E", "NoWaterService": "Yes", "CodeEnforcementCase": "", "ReportedtoCity": "Yes", "Yes": -84.492684, "y": 38.048125, "Address": "133 CONSTITUTION ST" }, "geometry": { "type": "Point", "coordinates": [ -84.49268418, 38.04812544 ] } },
{ "type": "Feature", "properties": { "ParcelNo": 10918400, "Number": "1877", "Street": "Courtland Dr", "CouncilDistrict": 6, "PropertyType": "R", "NoWaterService": "", "CodeEnforcementCase": "", "ReportedtoCity": "Yes", "Yes": -84.442110, "y": 38.055461, "Address": "1877 COURTLAND DR" }, "geometry": { "type": "Point", "coordinates": [ -84.44211029, 38.05546105 ] } },
{ "type": "Feature", "properties": { "ParcelNo": 16186000, "Number": "543", "Street": "Cricklewood Dr", "CouncilDistrict": 6, "PropertyType": "R", "NoWaterService": "", "CodeEnforcementCase": "Yes", "ReportedtoCity": "Yes", "Yes": -84.453832, "y": 38.057336, "Address": "543 CRICKLEWOOD DR" }, "geometry": { "type": "Point", "coordinates": [ -84.45383245, 38.05733566 ] } },
{ "type": "Feature", "properties": { "ParcelNo": 16102400, "Number": "1043", "Street": "Cross Keys Rd", "CouncilDistrict": 11, "PropertyType": "M", "NoWaterService": "", "CodeEnforcementCase": "Yes", "ReportedtoCity": "Yes", "Yes": -84.549114, "y": 38.039891, "Address": "1043 CROSS KEYS RD" }, "geometry": { "type": "Point", "coordinates": [ -84.54911402, 38.03989111 ] } },
{ "type": "Feature", "properties": { "ParcelNo": 16240900, "Number": "473", "Street": "Curry Ave", "CouncilDistrict": 3, "PropertyType": "C", "NoWaterService": "Yes", "CodeEnforcementCase": "Yes", "ReportedtoCity": "", "Yes": -84.514013, "y": 38.043542, "Address": "473 CURRY AVE" }, "geometry": { "type": "Point", "coordinates": [ -84.51401303, 38.04354186 ] } },
{ "type": "Feature", "properties": { "ParcelNo": 10718300, "Number": "707", "Street": "Dakota St", "CouncilDistrict": 1, "PropertyType": "R", "NoWaterService": "", "CodeEnforcementCase": "", "ReportedtoCity": "Yes", "Yes": -84.486189, "y": 38.057551, "Address": "707 DAKOTA ST" }, "geometry": { "type": "Point", "coordinates": [ -84.48618928, 38.057551 ] } },
{ "type": "Feature", "properties": { "ParcelNo": 12271900, "Number": "715", "Street": "Dakota St", "CouncilDistrict": 1, "PropertyType": "R", "NoWaterService": "", "CodeEnforcementCase": "Yes", "ReportedtoCity": "Yes", "Yes": -84.485932, "y": 38.057731, "Address": "715 DAKOTA ST" }, "geometry": { "type": "Point", "coordinates": [ -84.48593199, 38.05773101 ] } },
{ "type": "Feature", "properties": { "ParcelNo": 15503625, "Number": "737", "Street": "Dakota St", "CouncilDistrict": 1, "PropertyType": "R", "NoWaterService": "", "CodeEnforcementCase": "", "ReportedtoCity": "Yes", "Yes": -84.485417, "y": 38.058091, "Address": "737 DAKOTA ST" }, "geometry": { "type": "Point", "coordinates": [ -84.48541673, 38.05809117 ] } },
{ "type": "Feature", "properties": { "ParcelNo": 10114600, "Number": "763", "Street": "Dakota St", "CouncilDistrict": 1, "PropertyType": "R", "NoWaterService": "", "CodeEnforcementCase": "Yes", "ReportedtoCity": "Yes", "Yes": -84.484818, "y": 38.058510, "Address": "763 DAKOTA ST" }, "geometry": { "type": "Point", "coordinates": [ -84.48481838, 38.05850986 ] } },
{ "type": "Feature", "properties": { "ParcelNo": 13063550, "Number": "765", "Street": "Dakota St", "CouncilDistrict": 1, "PropertyType": "M", "NoWaterService": "", "CodeEnforcementCase": "Yes", "ReportedtoCity": "Yes", "Yes": -84.484709, "y": 38.058586, "Address": "765 DAKOTA ST" }, "geometry": { "type": "Point", "coordinates": [ -84.48470919, 38.0585862 ] } },
{ "type": "Feature", "properties": { "ParcelNo": 12831100, "Number": "1257", "Street": "Dale Dr", "CouncilDistrict": 8, "PropertyType": "R", "NoWaterService": "Yes", "CodeEnforcementCase": "Yes", "ReportedtoCity": "", "Yes": -84.487168, "y": 37.973844, "Address": "1257 DALE DR" }, "geometry": { "type": "Point", "coordinates": [ -84.4871684, 37.97384418 ] } },
{ "type": "Feature", "properties": { "ParcelNo": 10075000, "Number": "1300", "Street": "Dale Dr", "CouncilDistrict": 8, "PropertyType": "R", "NoWaterService": "Yes", "CodeEnforcementCase": "Yes", "ReportedtoCity": "", "Yes": -84.485275, "y": 37.972676, "Address": "1300 DALE DR" }, "geometry": { "type": "Point", "coordinates": [ -84.48527511, 37.97267564 ] } },
{ "type": "Feature", "properties": { "ParcelNo": 20048750, "Number": "633", "Street": "Dardanelles Dr", "CouncilDistrict": 10, "PropertyType": "R", "NoWaterService": "Yes", "CodeEnforcementCase": "Yes", "ReportedtoCity": "", "Yes": -84.543807, "y": 38.008741, "Address": "633 DARDANELLES DR" }, "geometry": { "type": "Point", "coordinates": [ -84.54380712, 38.00874108 ] } },
{ "type": "Feature", "properties": { "ParcelNo": 20048120, "Number": "680", "Street": "Dardanelles Dr", "CouncilDistrict": 10, "PropertyType": "R", "NoWaterService": "", "CodeEnforcementCase": "Yes", "ReportedtoCity": "Yes", "Yes": -84.546582, "y": 38.008511, "Address": "680 DARDANELLES DR" }, "geometry": { "type": "Point", "coordinates": [ -84.54658193, 38.00851099 ] } },
{ "type": "Feature", "properties": { "ParcelNo": 17245500, "Number": "961", "Street": "De Porres Ave", "CouncilDistrict": 1, "PropertyType": "R", "NoWaterService": "Yes", "CodeEnforcementCase": "", "ReportedtoCity": "Yes", "Yes": -84.509221, "y": 38.071569, "Address": "961 DE PORRES AVE" }, "geometry": { "type": "Point", "coordinates": [ -84.50922076, 38.07156924 ] } },
{ "type": "Feature", "properties": { "ParcelNo": 10016400, "Number": "1905", "Street": "Deauville Dr", "CouncilDistrict": 11, "PropertyType": "R", "NoWaterService": "", "CodeEnforcementCase": "Yes", "ReportedtoCity": "Yes", "Yes": -84.542601, "y": 38.050668, "Address": "1905 DEAUVILLE DR" }, "geometry": { "type": "Point", "coordinates": [ -84.54260145, 38.05066803 ] } },
{ "type": "Feature", "properties": { "ParcelNo": 15384800, "Number": "1924", "Street": "Deauville Dr", "CouncilDistrict": 11, "PropertyType": "R", "NoWaterService": "", "CodeEnforcementCase": "Yes", "ReportedtoCity": "Yes", "Yes": -84.545028, "y": 38.051631, "Address": "1924 DEAUVILLE DR" }, "geometry": { "type": "Point", "coordinates": [ -84.54502835, 38.05163133 ] } },
{ "type": "Feature", "properties": { "ParcelNo": 10120475, "Number": "320", "Street": "Desha Rd", "CouncilDistrict": 5, "PropertyType": "R", "NoWaterService": "Yes", "CodeEnforcementCase": "Yes", "ReportedtoCity": "", "Yes": -84.487129, "y": 38.029800, "Address": "320 DESHA RD" }, "geometry": { "type": "Point", "coordinates": [ -84.48712947, 38.02980037 ] } },
{ "type": "Feature", "properties": { "ParcelNo": 22134850, "Number": "1643", "Street": "Donelwal Dr", "CouncilDistrict": 12, "PropertyType": "R", "NoWaterService": "", "CodeEnforcementCase": "", "ReportedtoCity": "Yes", "Yes": -84.525497, "y": 38.134533, "Address": "1643 DONELWAL DR" }, "geometry": { "type": "Point", "coordinates": [ -84.5254968, 38.13453316 ] } },
{ "type": "Feature", "properties": { "ParcelNo": 17059100, "Number": "439", "Street": "Douglas Ave", "CouncilDistrict": 2, "PropertyType": "R", "NoWaterService": "", "CodeEnforcementCase": "Yes", "ReportedtoCity": "Yes", "Yes": -84.506003, "y": 38.065765, "Address": "439 DOUGLAS AVE" }, "geometry": { "type": "Point", "coordinates": [ -84.50600287, 38.065765 ] } },
{ "type": "Feature", "properties": { "ParcelNo": 21539200, "Number": "461", "Street": "Dover Rd", "CouncilDistrict": 1, "PropertyType": "R", "NoWaterService": "Yes", "CodeEnforcementCase": "Yes", "ReportedtoCity": "", "Yes": -84.466603, "y": 38.072608, "Address": "461 DOVER RD" }, "geometry": { "type": "Point", "coordinates": [ -84.46660307, 38.07260753 ] } },
{ "type": "Feature", "properties": { "ParcelNo": 12155500, "Number": "3328", "Street": "Downing Pl", "CouncilDistrict": 4, "PropertyType": "R", "NoWaterService": "", "CodeEnforcementCase": "Yes", "ReportedtoCity": "Yes", "Yes": -84.504242, "y": 37.981837, "Address": "3328 DOWNING PL" }, "geometry": { "type": "Point", "coordinates": [ -84.5042416, 37.98183703 ] } },
{ "type": "Feature", "properties": { "ParcelNo": 22155420, "Number": "3333", "Street": "Downing Pl", "CouncilDistrict": 4, "PropertyType": "R", "NoWaterService": "Yes", "CodeEnforcementCase": "Yes", "ReportedtoCity": "", "Yes": -84.503785, "y": 37.981483, "Address": "3333 DOWNING PL" }, "geometry": { "type": "Point", "coordinates": [ -84.50378481, 37.98148268 ] } },
{ "type": "Feature", "properties": { "ParcelNo": 38047050, "Number": "3317", "Street": "Drayton Pl", "CouncilDistrict": 9, "PropertyType": "R", "NoWaterService": "", "CodeEnforcementCase": "Yes", "ReportedtoCity": "Yes", "Yes": -84.543745, "y": 37.996524, "Address": "3317 DRAYTON PL" }, "geometry": { "type": "Point", "coordinates": [ -84.54374539, 37.99652351 ] } },
{ "type": "Feature", "properties": { "ParcelNo": 20386800, "Number": "1085", "Street": "Duncan Ave", "CouncilDistrict": 11, "PropertyType": "R", "NoWaterService": "Yes", "CodeEnforcementCase": "Yes", "ReportedtoCity": "", "Yes": -84.519904, "y": 38.038804, "Address": "1085 DUNCAN AVE" }, "geometry": { "type": "Point", "coordinates": [ -84.51990361, 38.03880447 ] } },
{ "type": "Feature", "properties": { "ParcelNo": 23832400, "Number": "113", "Street": "Dundee Dr", "CouncilDistrict": 4, "PropertyType": "R", "NoWaterService": "Yes", "CodeEnforcementCase": "Yes", "ReportedtoCity": "", "Yes": -84.522765, "y": 37.987296, "Address": "113 DUNDEE DR" }, "geometry": { "type": "Point", "coordinates": [ -84.52276498, 37.98729568 ] } },
{ "type": "Feature", "properties": { "ParcelNo": 21742400, "Number": "123", "Street": "Dundee Dr", "CouncilDistrict": 4, "PropertyType": "R", "NoWaterService": "Yes", "CodeEnforcementCase": "Yes", "ReportedtoCity": "Yes", "Yes": -84.522478, "y": 37.986046, "Address": "123 DUNDEE DR" }, "geometry": { "type": "Point", "coordinates": [ -84.52247793, 37.98604578 ] } },
{ "type": "Feature", "properties": { "ParcelNo": 10574051, "Number": "1848", "Street": "Dunkirk Dr", "CouncilDistrict": 11, "PropertyType": "R", "NoWaterService": "", "CodeEnforcementCase": "Yes", "ReportedtoCity": "Yes", "Yes": -84.533351, "y": 38.053310, "Address": "1848 DUNKIRK DR" }, "geometry": { "type": "Point", "coordinates": [ -84.53335143, 38.05330982 ] } },
{ "type": "Feature", "properties": { "ParcelNo": 11818600, "Number": "2040", "Street": "Dunkirk Dr", "CouncilDistrict": 11, "PropertyType": "R", "NoWaterService": "", "CodeEnforcementCase": "Yes", "ReportedtoCity": "Yes", "Yes": -84.545964, "y": 38.057420, "Address": "2040 DUNKIRK DR" }, "geometry": { "type": "Point", "coordinates": [ -84.5459639, 38.05741977 ] } },
{ "type": "Feature", "properties": { "ParcelNo": 38173260, "Number": "1092", "Street": "Duval St", "CouncilDistrict": 8, "PropertyType": "C", "NoWaterService": "Yes", "CodeEnforcementCase": "Yes", "ReportedtoCity": "", "Yes": -84.496798, "y": 37.964752, "Address": "1092 DUVAL ST" }, "geometry": { "type": "Point", "coordinates": [ -84.4967984, 37.96475221 ] } },
{ "type": "Feature", "properties": { "ParcelNo": 38173270, "Number": "1092", "Street": "Duval St", "CouncilDistrict": 8, "PropertyType": "C", "NoWaterService": "Yes", "CodeEnforcementCase": "Yes", "ReportedtoCity": "", "Yes": -84.496737, "y": 37.964778, "Address": "1092 DUVAL ST" }, "geometry": { "type": "Point", "coordinates": [ -84.49673692, 37.96477769 ] } },
{ "type": "Feature", "properties": { "ParcelNo": 38173300, "Number": "1092", "Street": "Duval St", "CouncilDistrict": 8, "PropertyType": "C", "NoWaterService": "Yes", "CodeEnforcementCase": "Yes", "ReportedtoCity": "", "Yes": -84.496814, "y": 37.964777, "Address": "1092 DUVAL ST" }, "geometry": { "type": "Point", "coordinates": [ -84.49681449, 37.96477654 ] } },
{ "type": "Feature", "properties": { "ParcelNo": 10988900, "Number": "286", "Street": "E Fifth St", "CouncilDistrict": 1, "PropertyType": "R", "NoWaterService": "Yes", "CodeEnforcementCase": "", "ReportedtoCity": "Yes", "Yes": -84.484501, "y": 38.048557, "Address": "286 E FIFTH ST" }, "geometry": { "type": "Point", "coordinates": [ -84.48450054, 38.04855722 ] } },
{ "type": "Feature", "properties": { "ParcelNo": 14883100, "Number": "304", "Street": "E Fifth St", "CouncilDistrict": 1, "PropertyType": "R", "NoWaterService": "", "CodeEnforcementCase": "Yes", "ReportedtoCity": "Yes", "Yes": -84.484286, "y": 38.048343, "Address": "304 E FIFTH ST" }, "geometry": { "type": "Point", "coordinates": [ -84.48428621, 38.04834319 ] } },
{ "type": "Feature", "properties": { "ParcelNo": 13252300, "Number": "270", "Street": "E Fourth St", "CouncilDistrict": 1, "PropertyType": "R", "NoWaterService": "Yes", "CodeEnforcementCase": "Yes", "ReportedtoCity": "Yes", "Yes": -84.486977, "y": 38.047413, "Address": "270 E FOURTH ST" }, "geometry": { "type": "Point", "coordinates": [ -84.48697668, 38.04741272 ] } },
{ "type": "Feature", "properties": { "ParcelNo": 13488100, "Number": "560", "Street": "E High St", "CouncilDistrict": 3, "PropertyType": "R", "NoWaterService": "Yes", "CodeEnforcementCase": "Yes", "ReportedtoCity": "", "Yes": -84.492045, "y": 38.034432, "Address": "560 E HIGH ST" }, "geometry": { "type": "Point", "coordinates": [ -84.4920447, 38.0344323 ] } },
{ "type": "Feature", "properties": { "ParcelNo": 10769600, "Number": "669", "Street": "E Loudon Ave", "CouncilDistrict": 5, "PropertyType": "R", "NoWaterService": "Yes", "CodeEnforcementCase": "Yes", "ReportedtoCity": "", "Yes": -84.471293, "y": 38.049269, "Address": "669 E LOUDON AVE" }, "geometry": { "type": "Point", "coordinates": [ -84.47129299, 38.04926921 ] } },
{ "type": "Feature", "properties": { "ParcelNo": 24497800, "Number": "223", "Street": "E Lowry Ln", "CouncilDistrict": 4, "PropertyType": "R", "NoWaterService": "Yes", "CodeEnforcementCase": "Yes", "ReportedtoCity": "", "Yes": -84.511911, "y": 38.004075, "Address": "223 E LOWRY LN" }, "geometry": { "type": "Point", "coordinates": [ -84.51191139, 38.00407462 ] } },
{ "type": "Feature", "properties": { "ParcelNo": 16458825, "Number": "710", "Street": "E Main St", "CouncilDistrict": 5, "PropertyType": "C", "NoWaterService": "Yes", "CodeEnforcementCase": "Yes", "ReportedtoCity": "", "Yes": -84.485437, "y": 38.035578, "Address": "710 E MAIN ST" }, "geometry": { "type": "Point", "coordinates": [ -84.48543727, 38.0355778 ] } },
{ "type": "Feature", "properties": { "ParcelNo": 11816300, "Number": "211", "Street": "E Maxwell St", "CouncilDistrict": 3, "PropertyType": "R", "NoWaterService": "Yes", "CodeEnforcementCase": "Yes", "ReportedtoCity": "", "Yes": -84.498536, "y": 38.041349, "Address": "211 E MAXWELL ST" }, "geometry": { "type": "Point", "coordinates": [ -84.49853596, 38.0413487 ] } },
{ "type": "Feature", "properties": { "ParcelNo": 15510002, "Number": "171-173", "Street": "E Seventh St", "CouncilDistrict": 1, "PropertyType": "R", "NoWaterService": "", "CodeEnforcementCase": "", "ReportedtoCity": "Yes", "Yes": -84.482315, "y": 38.053995, "Address": "171 E SEVENTH ST" }, "geometry": { "type": "Point", "coordinates": [ -84.48231516, 38.05399509 ] } },
{ "type": "Feature", "properties": { "ParcelNo": 13021050, "Number": "306", "Street": "E Seventh St", "CouncilDistrict": 1, "PropertyType": "R", "NoWaterService": "", "CodeEnforcementCase": "Yes", "ReportedtoCity": "Yes", "Yes": -84.480750, "y": 38.051965, "Address": "306 E SEVENTH ST" }, "geometry": { "type": "Point", "coordinates": [ -84.48075013, 38.05196511 ] } },
{ "type": "Feature", "properties": { "ParcelNo": 12344300, "Number": "310", "Street": "E Seventh St", "CouncilDistrict": 1, "PropertyType": "R", "NoWaterService": "", "CodeEnforcementCase": "Yes", "ReportedtoCity": "Yes", "Yes": -84.480665, "y": 38.051878, "Address": "310 E SEVENTH ST" }, "geometry": { "type": "Point", "coordinates": [ -84.48066489, 38.05187788 ] } },
{ "type": "Feature", "properties": { "ParcelNo": 10434100, "Number": "314", "Street": "E Seventh St", "CouncilDistrict": 1, "PropertyType": "R", "NoWaterService": "", "CodeEnforcementCase": "Yes", "ReportedtoCity": "Yes", "Yes": -84.480523, "y": 38.051824, "Address": "314 E SEVENTH ST" }, "geometry": { "type": "Point", "coordinates": [ -84.48052317, 38.05182382 ] } },
{ "type": "Feature", "properties": { "ParcelNo": 13314200, "Number": "408", "Street": "E Seventh St", "CouncilDistrict": 1, "PropertyType": "M", "NoWaterService": "", "CodeEnforcementCase": "Yes", "ReportedtoCity": "Yes", "Yes": -84.478977, "y": 38.050490, "Address": "408 E SEVENTH ST" }, "geometry": { "type": "Point", "coordinates": [ -84.47897703, 38.05049031 ] } },
{ "type": "Feature", "properties": { "ParcelNo": 13939300, "Number": "446", "Street": "E Seventh St", "CouncilDistrict": 1, "PropertyType": "R", "NoWaterService": "", "CodeEnforcementCase": "Yes", "ReportedtoCity": "Yes", "Yes": -84.477839, "y": 38.049636, "Address": "446 E SEVENTH ST" }, "geometry": { "type": "Point", "coordinates": [ -84.47783855, 38.04963578 ] } },
{ "type": "Feature", "properties": { "ParcelNo": 10793200, "Number": "508", "Street": "E Seventh St", "CouncilDistrict": 1, "PropertyType": "R", "NoWaterService": "", "CodeEnforcementCase": "", "ReportedtoCity": "Yes", "Yes": -84.477493, "y": 38.049249, "Address": "508 E SEVENTH ST" }, "geometry": { "type": "Point", "coordinates": [ -84.47749261, 38.0492494 ] } },
{ "type": "Feature", "properties": { "ParcelNo": 11499400, "Number": "521", "Street": "E Seventh St", "CouncilDistrict": 1, "PropertyType": "R", "NoWaterService": "", "CodeEnforcementCase": "Yes", "ReportedtoCity": "Yes", "Yes": -84.476688, "y": 38.049304, "Address": "521 E SEVENTH ST" }, "geometry": { "type": "Point", "coordinates": [ -84.47668829, 38.04930434 ] } },
{ "type": "Feature", "properties": { "ParcelNo": 13418150, "Number": "546", "Street": "E Seventh St", "CouncilDistrict": 1, "PropertyType": "R", "NoWaterService": "", "CodeEnforcementCase": "Yes", "ReportedtoCity": "Yes", "Yes": -84.476741, "y": 38.048682, "Address": "546 E SEVENTH ST" }, "geometry": { "type": "Point", "coordinates": [ -84.47674101, 38.04868212 ] } },
{ "type": "Feature", "properties": { "ParcelNo": 10497700, "Number": "547", "Street": "E Seventh St", "CouncilDistrict": 5, "PropertyType": "R", "NoWaterService": "", "CodeEnforcementCase": "", "ReportedtoCity": "Yes", "Yes": -84.475997, "y": 38.048799, "Address": "547 E SEVENTH ST" }, "geometry": { "type": "Point", "coordinates": [ -84.47599748, 38.04879922 ] } },
{ "type": "Feature", "properties": { "ParcelNo": 11630450, "Number": "552", "Street": "E Seventh St", "CouncilDistrict": 1, "PropertyType": "R", "NoWaterService": "", "CodeEnforcementCase": "", "ReportedtoCity": "Yes", "Yes": -84.476348, "y": 38.048393, "Address": "552 E SEVENTH ST" }, "geometry": { "type": "Point", "coordinates": [ -84.47634765, 38.04839331 ] } },
{ "type": "Feature", "properties": { "ParcelNo": 15072250, "Number": "562", "Street": "E Seventh St", "CouncilDistrict": 1, "PropertyType": "R", "NoWaterService": "", "CodeEnforcementCase": "Yes", "ReportedtoCity": "Yes", "Yes": -84.476009, "y": 38.048283, "Address": "562 E SEVENTH ST" }, "geometry": { "type": "Point", "coordinates": [ -84.4760089, 38.04828318 ] } },
{ "type": "Feature", "properties": { "ParcelNo": 12060653, "Number": "500-502", "Street": "E Third St", "CouncilDistrict": 1, "PropertyType": "C", "NoWaterService": "", "CodeEnforcementCase": "", "ReportedtoCity": "Yes", "Yes": -84.485739, "y": 38.044285, "Address": "500 E THIRD ST" }, "geometry": { "type": "Point", "coordinates": [ -84.48573894, 38.04428496 ] } },
{ "type": "Feature", "properties": { "ParcelNo": 11364600, "Number": "523", "Street": "E Third St", "CouncilDistrict": 1, "PropertyType": "C", "NoWaterService": "", "CodeEnforcementCase": "Yes", "ReportedtoCity": "Yes", "Yes": -84.484196, "y": 38.044229, "Address": "523 E THIRD ST" }, "geometry": { "type": "Point", "coordinates": [ -84.48419631, 38.04422864 ] } },
{ "type": "Feature", "properties": { "ParcelNo": 12697550, "Number": "547", "Street": "E Third St", "CouncilDistrict": 1, "PropertyType": "R", "NoWaterService": "", "CodeEnforcementCase": "Yes", "ReportedtoCity": "Yes", "Yes": -84.483213, "y": 38.043641, "Address": "547 E THIRD ST" }, "geometry": { "type": "Point", "coordinates": [ -84.48321271, 38.04364106 ] } },
{ "type": "Feature", "properties": { "ParcelNo": 12697500, "Number": "549", "Street": "E Third St", "CouncilDistrict": 1, "PropertyType": "C", "NoWaterService": "", "CodeEnforcementCase": "Yes", "ReportedtoCity": "Yes", "Yes": -84.483048, "y": 38.043547, "Address": "549 E THIRD ST" }, "geometry": { "type": "Point", "coordinates": [ -84.4830481, 38.04354722 ] } },
{ "type": "Feature", "properties": { "ParcelNo": 14851400, "Number": "939", "Street": "Effie Rd", "CouncilDistrict": 1, "PropertyType": "R", "NoWaterService": "Yes", "CodeEnforcementCase": "Yes", "ReportedtoCity": "", "Yes": -84.509770, "y": 38.070713, "Address": "939 EFFIE RD" }, "geometry": { "type": "Point", "coordinates": [ -84.50976981, 38.070713 ] } },
{ "type": "Feature", "properties": { "ParcelNo": 12229900, "Number": "615", "Street": "Elm Tree Ln", "CouncilDistrict": 1, "PropertyType": "R", "NoWaterService": "Yes", "CodeEnforcementCase": "Yes", "ReportedtoCity": "Yes", "Yes": -84.482408, "y": 38.051451, "Address": "615 ELM TREE LN" }, "geometry": { "type": "Point", "coordinates": [ -84.48240802, 38.05145078 ] } },
{ "type": "Feature", "properties": { "ParcelNo": 19311700, "Number": "3901", "Street": "English Oak Cir", "CouncilDistrict": 9, "PropertyType": "R", "NoWaterService": "Yes", "CodeEnforcementCase": "Yes", "ReportedtoCity": "", "Yes": -84.551636, "y": 37.974919, "Address": "3901 ENGLISH OAK CIR" }, "geometry": { "type": "Point", "coordinates": [ -84.55163571, 37.97491854 ] } },
{ "type": "Feature", "properties": { "ParcelNo": 20043320, "Number": "890", "Street": "Fairhaven Dr", "CouncilDistrict": 12, "PropertyType": "R", "NoWaterService": "Yes", "CodeEnforcementCase": "Yes", "ReportedtoCity": "", "Yes": -84.498085, "y": 37.957930, "Address": "890 FAIRHAVEN DR" }, "geometry": { "type": "Point", "coordinates": [ -84.49808499, 37.95793023 ] } },
{ "type": "Feature", "properties": { "ParcelNo": 15503501, "Number": "300", "Street": "Ferguson St", "CouncilDistrict": 2, "PropertyType": "R", "NoWaterService": "", "CodeEnforcementCase": "Yes", "ReportedtoCity": "Yes", "Yes": -84.516392, "y": 38.053359, "Address": "300 FERGUSON ST" }, "geometry": { "type": "Point", "coordinates": [ -84.5163916, 38.05335901 ] } },
{ "type": "Feature", "properties": { "ParcelNo": 40138000, "Number": "1109", "Street": "Fern Ave", "CouncilDistrict": 3, "PropertyType": "R", "NoWaterService": "", "CodeEnforcementCase": "Yes", "ReportedtoCity": "Yes", "Yes": -84.516212, "y": 38.034071, "Address": "1109 FERN AVE" }, "geometry": { "type": "Point", "coordinates": [ -84.51621179, 38.03407103 ] } },
{ "type": "Feature", "properties": { "ParcelNo": 19302210, "Number": "3061", "Street": "Fieldstone Way", "CouncilDistrict": 10, "PropertyType": "C", "NoWaterService": "Yes", "CodeEnforcementCase": "Yes", "ReportedtoCity": "", "Yes": -84.557093, "y": 38.014209, "Address": "3061 FIELDSTONE WAY" }, "geometry": { "type": "Point", "coordinates": [ -84.55709294, 38.01420894 ] } },
{ "type": "Feature", "properties": { "ParcelNo": 13851610, "Number": "981", "Street": "Fincastle Rd", "CouncilDistrict": 5, "PropertyType": "R", "NoWaterService": "Yes", "CodeEnforcementCase": "", "ReportedtoCity": "Yes", "Yes": -84.484010, "y": 38.032570, "Address": "981 FINCASTLE RD" }, "geometry": { "type": "Point", "coordinates": [ -84.48401007, 38.0325701 ] } },
{ "type": "Feature", "properties": { "ParcelNo": 16273600, "Number": "706", "Street": "Florida St", "CouncilDistrict": 1, "PropertyType": "R", "NoWaterService": "", "CodeEnforcementCase": "", "ReportedtoCity": "Yes", "Yes": -84.485222, "y": 38.056693, "Address": "706 FLORIDA ST" }, "geometry": { "type": "Point", "coordinates": [ -84.48522187, 38.05669294 ] } },
{ "type": "Feature", "properties": { "ParcelNo": 17185450, "Number": "2117", "Street": "Fontaine Rd", "CouncilDistrict": 5, "PropertyType": "E", "NoWaterService": "Yes", "CodeEnforcementCase": "Yes", "ReportedtoCity": "", "Yes": -84.467539, "y": 38.017978, "Address": "2117 FONTAINE RD" }, "geometry": { "type": "Point", "coordinates": [ -84.46753893, 38.01797833 ] } },
{ "type": "Feature", "properties": { "ParcelNo": 20020410, "Number": "3820", "Street": "Forest Green Dr", "CouncilDistrict": 4, "PropertyType": "R", "NoWaterService": "", "CodeEnforcementCase": "Yes", "ReportedtoCity": "Yes", "Yes": -84.503472, "y": 37.969581, "Address": "3820 FOREST GREEN DR" }, "geometry": { "type": "Point", "coordinates": [ -84.50347157, 37.96958057 ] } },
{ "type": "Feature", "properties": { "ParcelNo": 20014620, "Number": "4004", "Street": "Forest Green Dr", "CouncilDistrict": 4, "PropertyType": "R", "NoWaterService": "Yes", "CodeEnforcementCase": "Yes", "ReportedtoCity": "", "Yes": -84.507474, "y": 37.972252, "Address": "4004 FOREST GREEN DR" }, "geometry": { "type": "Point", "coordinates": [ -84.50747387, 37.97225207 ] } },
{ "type": "Feature", "properties": { "ParcelNo": 20014500, "Number": "4013", "Street": "Forest Green Dr", "CouncilDistrict": 4, "PropertyType": "R", "NoWaterService": "", "CodeEnforcementCase": "Yes", "ReportedtoCity": "Yes", "Yes": -84.506379, "y": 37.972804, "Address": "4013 FOREST GREEN DR" }, "geometry": { "type": "Point", "coordinates": [ -84.50637899, 37.97280404 ] } },
{ "type": "Feature", "properties": { "ParcelNo": 20042600, "Number": "4058", "Street": "Foxe Basin Rd", "CouncilDistrict": 9, "PropertyType": "R", "NoWaterService": "Yes", "CodeEnforcementCase": "Yes", "ReportedtoCity": "", "Yes": -84.529984, "y": 37.969544, "Address": "4058 FOXE BASIN RD" }, "geometry": { "type": "Point", "coordinates": [ -84.52998403, 37.96954406 ] } },
{ "type": "Feature", "properties": { "ParcelNo": 22980600, "Number": "518", "Street": "Freeman Dr", "CouncilDistrict": 6, "PropertyType": "R", "NoWaterService": "Yes", "CodeEnforcementCase": "Yes", "ReportedtoCity": "", "Yes": -84.453882, "y": 38.080248, "Address": "518 FREEMAN DR" }, "geometry": { "type": "Point", "coordinates": [ -84.45388199, 38.0802476 ] } },
{ "type": "Feature", "properties": { "ParcelNo": 13226600, "Number": "1200", "Street": "Gainesway Dr", "CouncilDistrict": 8, "PropertyType": "R", "NoWaterService": "Yes", "CodeEnforcementCase": "Yes", "ReportedtoCity": "Yes", "Yes": -84.482123, "y": 37.989317, "Address": "1200 GAINESWAY DR" }, "geometry": { "type": "Point", "coordinates": [ -84.48212327, 37.98931656 ] } },
{ "type": "Feature", "properties": { "ParcelNo": 10010650, "Number": "3332", "Street": "Gatewood Ct", "CouncilDistrict": 4, "PropertyType": "R", "NoWaterService": "Yes", "CodeEnforcementCase": "Yes", "ReportedtoCity": "", "Yes": -84.505409, "y": 37.983904, "Address": "3332 GATEWOOD CT" }, "geometry": { "type": "Point", "coordinates": [ -84.50540855, 37.98390435 ] } },
{ "type": "Feature", "properties": { "ParcelNo": 15764000, "Number": "439", "Street": "Georgetown St", "CouncilDistrict": 2, "PropertyType": "R", "NoWaterService": "", "CodeEnforcementCase": "Yes", "ReportedtoCity": "Yes", "Yes": -84.501789, "y": 38.061317, "Address": "439 GEORGETOWN ST" }, "geometry": { "type": "Point", "coordinates": [ -84.50178925, 38.06131683 ] } },
{ "type": "Feature", "properties": { "ParcelNo": 10856440, "Number": "825-827", "Street": "Georgetown St", "CouncilDistrict": 2, "PropertyType": "C", "NoWaterService": "", "CodeEnforcementCase": "", "ReportedtoCity": "Yes", "Yes": -84.504218, "y": 38.068700, "Address": "825 GEORGETOWN ST" }, "geometry": { "type": "Point", "coordinates": [ -84.50421764, 38.06869991 ] } },
{ "type": "Feature", "properties": { "ParcelNo": 12677725, "Number": "835", "Street": "Georgetown St", "CouncilDistrict": 2, "PropertyType": "R", "NoWaterService": "", "CodeEnforcementCase": "", "ReportedtoCity": "Yes", "Yes": -84.504490, "y": 38.069061, "Address": "835 GEORGETOWN ST" }, "geometry": { "type": "Point", "coordinates": [ -84.5044899, 38.06906113 ] } },
{ "type": "Feature", "properties": { "ParcelNo": 17021000, "Number": "802", "Street": "Glendover Rd", "CouncilDistrict": 4, "PropertyType": "R", "NoWaterService": "Yes", "CodeEnforcementCase": "Yes", "ReportedtoCity": "Yes", "Yes": -84.498559, "y": 38.008264, "Address": "802 GLENDOVER RD" }, "geometry": { "type": "Point", "coordinates": [ -84.49855939, 38.00826419 ] } },
{ "type": "Feature", "properties": { "ParcelNo": 27246800, "Number": "719", "Street": "Golfview Dr", "CouncilDistrict": 11, "PropertyType": "R", "NoWaterService": "Yes", "CodeEnforcementCase": "Yes", "ReportedtoCity": "Yes", "Yes": -84.528808, "y": 38.040507, "Address": "719 GOLFVIEW DR" }, "geometry": { "type": "Point", "coordinates": [ -84.52880783, 38.04050735 ] } },
{ "type": "Feature", "properties": { "ParcelNo": 26680400, "Number": "134", "Street": "Goodrich Ave", "CouncilDistrict": 3, "PropertyType": "R", "NoWaterService": "", "CodeEnforcementCase": "Yes", "ReportedtoCity": "Yes", "Yes": -84.519556, "y": 38.014309, "Address": "134 GOODRICH AVE" }, "geometry": { "type": "Point", "coordinates": [ -84.51955564, 38.01430937 ] } },
{ "type": "Feature", "properties": { "ParcelNo": 12631800, "Number": "1522", "Street": "Grant Dr", "CouncilDistrict": 1, "PropertyType": "R", "NoWaterService": "", "CodeEnforcementCase": "Yes", "ReportedtoCity": "Yes", "Yes": -84.482126, "y": 38.075701, "Address": "1522 GRANT DR" }, "geometry": { "type": "Point", "coordinates": [ -84.4821258, 38.07570054 ] } },
{ "type": "Feature", "properties": { "ParcelNo": 14329100, "Number": "3406", "Street": "Greentree Rd", "CouncilDistrict": 8, "PropertyType": "R", "NoWaterService": "Yes", "CodeEnforcementCase": "Yes", "ReportedtoCity": "Yes", "Yes": -84.482239, "y": 37.989112, "Address": "3406 GREENTREE RD" }, "geometry": { "type": "Point", "coordinates": [ -84.48223874, 37.98911236 ] } },
{ "type": "Feature", "properties": { "ParcelNo": 10581700, "Number": "465", "Street": "Greenwood Ave", "CouncilDistrict": 2, "PropertyType": "R", "NoWaterService": "", "CodeEnforcementCase": "", "ReportedtoCity": "Yes", "Yes": -84.505084, "y": 38.069782, "Address": "465 GREENWOOD AVE" }, "geometry": { "type": "Point", "coordinates": [ -84.50508385, 38.06978176 ] } },
{ "type": "Feature", "properties": { "ParcelNo": 10497300, "Number": "469", "Street": "Greenwood Ave", "CouncilDistrict": 2, "PropertyType": "R", "NoWaterService": "Yes", "CodeEnforcementCase": "Yes", "ReportedtoCity": "Yes", "Yes": -84.504964, "y": 38.069843, "Address": "469 GREENWOOD AVE" }, "geometry": { "type": "Point", "coordinates": [ -84.50496351, 38.0698431 ] } },
{ "type": "Feature", "properties": { "ParcelNo": 22567400, "Number": "149", "Street": "Hamilton Park", "CouncilDistrict": 11, "PropertyType": "R", "NoWaterService": "Yes", "CodeEnforcementCase": "Yes", "ReportedtoCity": "Yes", "Yes": -84.537633, "y": 38.051848, "Address": "149 HAMILTON PARK" }, "geometry": { "type": "Point", "coordinates": [ -84.53763342, 38.05184819 ] } },
{ "type": "Feature", "properties": { "ParcelNo": 38000260, "Number": "2844", "Street": "Hanna Pl", "CouncilDistrict": 7, "PropertyType": "R", "NoWaterService": "", "CodeEnforcementCase": "Yes", "ReportedtoCity": "Yes", "Yes": -84.447172, "y": 38.010231, "Address": "2844 HANNA PL" }, "geometry": { "type": "Point", "coordinates": [ -84.44717238, 38.01023096 ] } },
{ "type": "Feature", "properties": { "ParcelNo": 38000270, "Number": "2846", "Street": "Hanna Pl", "CouncilDistrict": 7, "PropertyType": "R", "NoWaterService": "", "CodeEnforcementCase": "Yes", "ReportedtoCity": "Yes", "Yes": -84.447119, "y": 38.010266, "Address": "2846 HANNA PL" }, "geometry": { "type": "Point", "coordinates": [ -84.44711905, 38.0102661 ] } },
{ "type": "Feature", "properties": { "ParcelNo": 44767300, "Number": "1604", "Street": "Harrodsburg Rd", "CouncilDistrict": 11, "PropertyType": "C", "NoWaterService": "Yes", "CodeEnforcementCase": "Yes", "ReportedtoCity": "", "Yes": -84.525840, "y": 38.031795, "Address": "1604 HARRODSBURG RD" }, "geometry": { "type": "Point", "coordinates": [ -84.52584034, 38.03179542 ] } },
{ "type": "Feature", "properties": { "ParcelNo": 10914800, "Number": "1681", "Street": "Harrogate Rd", "CouncilDistrict": 6, "PropertyType": "R", "NoWaterService": "", "CodeEnforcementCase": "Yes", "ReportedtoCity": "Yes", "Yes": -84.456598, "y": 38.055701, "Address": "1681 HARROGATE RD" }, "geometry": { "type": "Point", "coordinates": [ -84.4565976, 38.05570147 ] } },
{ "type": "Feature", "properties": { "ParcelNo": 12542900, "Number": "417", "Street": "Hawkins Ave", "CouncilDistrict": 1, "PropertyType": "R", "NoWaterService": "", "CodeEnforcementCase": "", "ReportedtoCity": "Yes", "Yes": -84.484706, "y": 38.046432, "Address": "417 HAWKINS AVE" }, "geometry": { "type": "Point", "coordinates": [ -84.4847061, 38.04643162 ] } },
{ "type": "Feature", "properties": { "ParcelNo": 12114800, "Number": "441-445", "Street": "Hawkins Ave", "CouncilDistrict": 1, "PropertyType": "R", "NoWaterService": "", "CodeEnforcementCase": "", "ReportedtoCity": "Yes", "Yes": -84.483951, "y": 38.046922, "Address": "441 HAWKINS AVE" }, "geometry": { "type": "Point", "coordinates": [ -84.48395075, 38.04692222 ] } },
{ "type": "Feature", "properties": { "ParcelNo": 16521440, "Number": "219", "Street": "Hedgewood Ct", "CouncilDistrict": 7, "PropertyType": "R", "NoWaterService": "", "CodeEnforcementCase": "", "ReportedtoCity": "Yes", "Yes": -84.450140, "y": 38.013711, "Address": "219 HEDGEWOOD CT" }, "geometry": { "type": "Point", "coordinates": [ -84.45013982, 38.0137107 ] } },
{ "type": "Feature", "properties": { "ParcelNo": 23336200, "Number": "132", "Street": "Henton Rd", "CouncilDistrict": 2, "PropertyType": "R", "NoWaterService": "Yes", "CodeEnforcementCase": "Yes", "ReportedtoCity": "", "Yes": -84.516310, "y": 38.058631, "Address": "132 HENTON RD" }, "geometry": { "type": "Point", "coordinates": [ -84.51631027, 38.05863106 ] } },
{ "type": "Feature", "properties": { "ParcelNo": 20450225, "Number": "553", "Street": "Hi Crest Dr", "CouncilDistrict": 6, "PropertyType": "R", "NoWaterService": "", "CodeEnforcementCase": "Yes", "ReportedtoCity": "Yes", "Yes": -84.450659, "y": 38.060498, "Address": "553 HI CREST DR" }, "geometry": { "type": "Point", "coordinates": [ -84.45065857, 38.06049785 ] } },
{ "type": "Feature", "properties": { "ParcelNo": 16770800, "Number": "510", "Street": "Hill N Dale Rd", "CouncilDistrict": 10, "PropertyType": "R", "NoWaterService": "Yes", "CodeEnforcementCase": "Yes", "ReportedtoCity": "", "Yes": -84.534759, "y": 38.013125, "Address": "510 HILL N DALE RD" }, "geometry": { "type": "Point", "coordinates": [ -84.53475888, 38.01312537 ] } },
{ "type": "Feature", "properties": { "ParcelNo": 12950600, "Number": "441", "Street": "Hollow Creek Rd", "CouncilDistrict": 1, "PropertyType": "E", "NoWaterService": "Yes", "CodeEnforcementCase": "Yes", "ReportedtoCity": "", "Yes": -84.476859, "y": 38.074283, "Address": "441 HOLLOW CREEK RD" }, "geometry": { "type": "Point", "coordinates": [ -84.47685876, 38.07428289 ] } },
{ "type": "Feature", "properties": { "ParcelNo": 22417350, "Number": "989", "Street": "Holly Springs Dr", "CouncilDistrict": 11, "PropertyType": "R", "NoWaterService": "", "CodeEnforcementCase": "Yes", "ReportedtoCity": "Yes", "Yes": -84.546055, "y": 38.037115, "Address": "989 HOLLY SPRINGS DR" }, "geometry": { "type": "Point", "coordinates": [ -84.54605475, 38.03711451 ] } },
{ "type": "Feature", "properties": { "ParcelNo": 23419500, "Number": "205", "Street": "Inverness Dr", "CouncilDistrict": 4, "PropertyType": "R", "NoWaterService": "Yes", "CodeEnforcementCase": "Yes", "ReportedtoCity": "", "Yes": -84.520250, "y": 37.986485, "Address": "205 INVERNESS DR" }, "geometry": { "type": "Point", "coordinates": [ -84.52024951, 37.98648535 ] } },
{ "type": "Feature", "properties": { "ParcelNo": 20059740, "Number": "790", "Street": "Jairus Dr", "CouncilDistrict": 12, "PropertyType": "R", "NoWaterService": "", "CodeEnforcementCase": "", "ReportedtoCity": "Yes", "Yes": -84.499262, "y": 37.957020, "Address": "790 JAIRUS DR" }, "geometry": { "type": "Point", "coordinates": [ -84.49926151, 37.95702024 ] } },
{ "type": "Feature", "properties": { "ParcelNo": 20022680, "Number": "979", "Street": "Jairus Dr", "CouncilDistrict": 12, "PropertyType": "E", "NoWaterService": "", "CodeEnforcementCase": "Yes", "ReportedtoCity": "Yes", "Yes": -84.495497, "y": 37.959337, "Address": "979 JAIRUS DR" }, "geometry": { "type": "Point", "coordinates": [ -84.49549669, 37.95933747 ] } },
{ "type": "Feature", "properties": { "ParcelNo": 13781001, "Number": "444", "Street": "Jefferson St", "CouncilDistrict": 1, "PropertyType": "R", "NoWaterService": "", "CodeEnforcementCase": "Yes", "ReportedtoCity": "Yes", "Yes": -84.495138, "y": 38.057146, "Address": "444 JEFFERSON ST" }, "geometry": { "type": "Point", "coordinates": [ -84.49513833, 38.05714557 ] } },
{ "type": "Feature", "properties": { "ParcelNo": 16251300, "Number": "514", "Street": "Jefferson St", "CouncilDistrict": 1, "PropertyType": "R", "NoWaterService": "Yes", "CodeEnforcementCase": "Yes", "ReportedtoCity": "", "Yes": -84.493864, "y": 38.058107, "Address": "514 JEFFERSON ST" }, "geometry": { "type": "Point", "coordinates": [ -84.49386447, 38.05810667 ] } },
{ "type": "Feature", "properties": { "ParcelNo": 26277300, "Number": "166", "Street": "Jesselin Dr", "CouncilDistrict": 4, "PropertyType": "R", "NoWaterService": "Yes", "CodeEnforcementCase": "Yes", "ReportedtoCity": "", "Yes": -84.512418, "y": 38.009675, "Address": "166 JESSELIN DR" }, "geometry": { "type": "Point", "coordinates": [ -84.51241806, 38.00967517 ] } },
{ "type": "Feature", "properties": { "ParcelNo": 10003760, "Number": "1453", "Street": "Jocasta Dr", "CouncilDistrict": 8, "PropertyType": "R", "NoWaterService": "Yes", "CodeEnforcementCase": "Yes", "ReportedtoCity": "", "Yes": -84.465297, "y": 37.979119, "Address": "1453 JOCASTA DR" }, "geometry": { "type": "Point", "coordinates": [ -84.46529651, 37.97911919 ] } },
{ "type": "Feature", "properties": { "ParcelNo": 20072000, "Number": "123", "Street": "Johnston Blvd", "CouncilDistrict": 4, "PropertyType": "R", "NoWaterService": "Yes", "CodeEnforcementCase": "Yes", "ReportedtoCity": "", "Yes": -84.512527, "y": 38.015656, "Address": "123 JOHNSTON BLVD" }, "geometry": { "type": "Point", "coordinates": [ -84.51252701, 38.0156563 ] } },
{ "type": "Feature", "properties": { "ParcelNo": 24816621, "Number": "3804", "Street": "Joshua Cir", "CouncilDistrict": 9, "PropertyType": "R", "NoWaterService": "Yes", "CodeEnforcementCase": "Yes", "ReportedtoCity": "Yes", "Yes": -84.554788, "y": 37.979215, "Address": "3804 JOSHUA CIR" }, "geometry": { "type": "Point", "coordinates": [ -84.55478806, 37.97921492 ] } },
{ "type": "Feature", "properties": { "ParcelNo": 20909400, "Number": "608", "Street": "Kent Dr", "CouncilDistrict": 6, "PropertyType": "R", "NoWaterService": "Yes", "CodeEnforcementCase": "Yes", "ReportedtoCity": "Yes", "Yes": -84.455916, "y": 38.086787, "Address": "608 KENT DR" }, "geometry": { "type": "Point", "coordinates": [ -84.45591578, 38.08678676 ] } },
{ "type": "Feature", "properties": { "ParcelNo": 13173400, "Number": "1116", "Street": "Kilrush Dr", "CouncilDistrict": 11, "PropertyType": "R", "NoWaterService": "Yes", "CodeEnforcementCase": "Yes", "ReportedtoCity": "", "Yes": -84.549934, "y": 38.058774, "Address": "1116 KILRUSH DR" }, "geometry": { "type": "Point", "coordinates": [ -84.54993367, 38.05877439 ] } },
{ "type": "Feature", "properties": { "ParcelNo": 25372100, "Number": "238", "Street": "Koster St", "CouncilDistrict": 11, "PropertyType": "R", "NoWaterService": "Yes", "CodeEnforcementCase": "Yes", "ReportedtoCity": "", "Yes": -84.525172, "y": 38.022573, "Address": "238 KOSTER ST" }, "geometry": { "type": "Point", "coordinates": [ -84.5251724, 38.02257325 ] } },
{ "type": "Feature", "properties": { "ParcelNo": 14726900, "Number": "114", "Street": "Lackawanna Rd", "CouncilDistrict": 3, "PropertyType": "R", "NoWaterService": "Yes", "CodeEnforcementCase": "Yes", "ReportedtoCity": "", "Yes": -84.517456, "y": 38.014814, "Address": "114 LACKAWANNA RD" }, "geometry": { "type": "Point", "coordinates": [ -84.5174563, 38.01481424 ] } },
{ "type": "Feature", "properties": { "ParcelNo": 19984080, "Number": "3725", "Street": "Lady Di Ln", "CouncilDistrict": 8, "PropertyType": "R", "NoWaterService": "", "CodeEnforcementCase": "Yes", "ReportedtoCity": "Yes", "Yes": -84.494687, "y": 37.979859, "Address": "3725 LADY DI LN" }, "geometry": { "type": "Point", "coordinates": [ -84.49468693, 37.97985904 ] } },
{ "type": "Feature", "properties": { "ParcelNo": 10278751, "Number": "500", "Street": "Laketower Dr", "CouncilDistrict": 5, "PropertyType": "R", "NoWaterService": "Yes", "CodeEnforcementCase": "Yes", "ReportedtoCity": "", "Yes": -84.468883, "y": 38.010191, "Address": "500 LAKETOWER DR" }, "geometry": { "type": "Point", "coordinates": [ -84.46888337, 38.01019064 ] } },
{ "type": "Feature", "properties": { "ParcelNo": 10278781, "Number": "500", "Street": "Laketower Dr", "CouncilDistrict": 5, "PropertyType": "R", "NoWaterService": "Yes", "CodeEnforcementCase": "Yes", "ReportedtoCity": "", "Yes": -84.468108, "y": 38.009220, "Address": "500 LAKETOWER DR" }, "geometry": { "type": "Point", "coordinates": [ -84.46810792, 38.00922003 ] } },
{ "type": "Feature", "properties": { "ParcelNo": 17289780, "Number": "500", "Street": "Laketower Dr", "CouncilDistrict": 5, "PropertyType": "R", "NoWaterService": "Yes", "CodeEnforcementCase": "Yes", "ReportedtoCity": "", "Yes": -84.469697, "y": 38.010521, "Address": "500 LAKETOWER DR" }, "geometry": { "type": "Point", "coordinates": [ -84.46969724, 38.01052131 ] } },
{ "type": "Feature", "properties": { "ParcelNo": 20109300, "Number": "585", "Street": "Lamont Dr", "CouncilDistrict": 10, "PropertyType": "R", "NoWaterService": "", "CodeEnforcementCase": "Yes", "ReportedtoCity": "Yes", "Yes": -84.537309, "y": 38.010467, "Address": "585 LAMONT DR" }, "geometry": { "type": "Point", "coordinates": [ -84.53730882, 38.01046711 ] } },
{ "type": "Feature", "properties": { "ParcelNo": 14530635, "Number": "2553", "Street": "Larkin Rd", "CouncilDistrict": 4, "PropertyType": "M", "NoWaterService": "Yes", "CodeEnforcementCase": "Yes", "ReportedtoCity": "", "Yes": -84.518828, "y": 38.000823, "Address": "2553 LARKIN RD" }, "geometry": { "type": "Point", "coordinates": [ -84.51882806, 38.00082325 ] } },
{ "type": "Feature", "properties": { "ParcelNo": 11293000, "Number": "2149", "Street": "Larkspur Dr", "CouncilDistrict": 11, "PropertyType": "R", "NoWaterService": "", "CodeEnforcementCase": "Yes", "ReportedtoCity": "Yes", "Yes": -84.542936, "y": 38.023994, "Address": "2149 LARKSPUR DR" }, "geometry": { "type": "Point", "coordinates": [ -84.54293582, 38.02399377 ] } },
{ "type": "Feature", "properties": { "ParcelNo": 15104100, "Number": "2348", "Street": "Le Havre Rd", "CouncilDistrict": 11, "PropertyType": "R", "NoWaterService": "", "CodeEnforcementCase": "Yes", "ReportedtoCity": "Yes", "Yes": -84.555158, "y": 38.048908, "Address": "2348 LE HAVRE RD" }, "geometry": { "type": "Point", "coordinates": [ -84.55515783, 38.04890752 ] } },
{ "type": "Feature", "properties": { "ParcelNo": 13620208, "Number": "1317", "Street": "Leaning Tree Ln", "CouncilDistrict": 8, "PropertyType": "R", "NoWaterService": "Yes", "CodeEnforcementCase": "Yes", "ReportedtoCity": "", "Yes": -84.465803, "y": 37.991968, "Address": "1317 LEANING TREE LN" }, "geometry": { "type": "Point", "coordinates": [ -84.46580324, 37.99196755 ] } },
{ "type": "Feature", "properties": { "ParcelNo": 13567200, "Number": "634", "Street": "Leslie Dr", "CouncilDistrict": 6, "PropertyType": "R", "NoWaterService": "Yes", "CodeEnforcementCase": "Yes", "ReportedtoCity": "", "Yes": -84.452763, "y": 38.087962, "Address": "634 LESLIE DR" }, "geometry": { "type": "Point", "coordinates": [ -84.45276345, 38.08796183 ] } },
{ "type": "Feature", "properties": { "ParcelNo": 46907400, "Number": "1601", "Street": "Liberty Rd", "CouncilDistrict": 5, "PropertyType": "R", "NoWaterService": "", "CodeEnforcementCase": "Yes", "ReportedtoCity": "Yes", "Yes": -84.464680, "y": 38.038323, "Address": "1601 LIBERTY RD" }, "geometry": { "type": "Point", "coordinates": [ -84.46467982, 38.03832306 ] } },
{ "type": "Feature", "properties": { "ParcelNo": 46631300, "Number": "369", "Street": "Lincoln Ave", "CouncilDistrict": 5, "PropertyType": "R", "NoWaterService": "Yes", "CodeEnforcementCase": "Yes", "ReportedtoCity": "Yes", "Yes": -84.471520, "y": 38.037036, "Address": "369 LINCOLN AVE" }, "geometry": { "type": "Point", "coordinates": [ -84.47152036, 38.03703605 ] } },
{ "type": "Feature", "properties": { "ParcelNo": 14006300, "Number": "463", "Street": "Lindberg Dr", "CouncilDistrict": 2, "PropertyType": "R", "NoWaterService": "Yes", "CodeEnforcementCase": "Yes", "ReportedtoCity": "", "Yes": -84.504255, "y": 38.067579, "Address": "463 LINDBERG DR" }, "geometry": { "type": "Point", "coordinates": [ -84.50425539, 38.0675792 ] } },
{ "type": "Feature", "properties": { "ParcelNo": 10473900, "Number": "600", "Street": "Lisa Ct", "CouncilDistrict": 6, "PropertyType": "E", "NoWaterService": "", "CodeEnforcementCase": "Yes", "ReportedtoCity": "Yes", "Yes": -84.459810, "y": 38.082904, "Address": "600 LISA CT" }, "geometry": { "type": "Point", "coordinates": [ -84.45981026, 38.08290428 ] } },
{ "type": "Feature", "properties": { "ParcelNo": 20665850, "Number": "112", "Street": "Loch Lomond Dr", "CouncilDistrict": 4, "PropertyType": "R", "NoWaterService": "Yes", "CodeEnforcementCase": "Yes", "ReportedtoCity": "Yes", "Yes": -84.523596, "y": 37.985791, "Address": "112 LOCH LOMOND DR" }, "geometry": { "type": "Point", "coordinates": [ -84.52359635, 37.98579086 ] } },
{ "type": "Feature", "properties": { "ParcelNo": 47114200, "Number": "305", "Street": "Locust Ave", "CouncilDistrict": 1, "PropertyType": "R", "NoWaterService": "", "CodeEnforcementCase": "Yes", "ReportedtoCity": "Yes", "Yes": -84.472097, "y": 38.059349, "Address": "305 LOCUST AVE" }, "geometry": { "type": "Point", "coordinates": [ -84.47209714, 38.05934931 ] } },
{ "type": "Feature", "properties": { "ParcelNo": 17088050, "Number": "405", "Street": "Locust Ave", "CouncilDistrict": 1, "PropertyType": "R", "NoWaterService": "", "CodeEnforcementCase": "Yes", "ReportedtoCity": "Yes", "Yes": -84.470599, "y": 38.057728, "Address": "405 LOCUST AVE" }, "geometry": { "type": "Point", "coordinates": [ -84.47059926, 38.05772849 ] } },
{ "type": "Feature", "properties": { "ParcelNo": 15829400, "Number": "152", "Street": "Londonderry Dr", "CouncilDistrict": 11, "PropertyType": "R", "NoWaterService": "", "CodeEnforcementCase": "Yes", "ReportedtoCity": "Yes", "Yes": -84.538794, "y": 38.053064, "Address": "152 LONDONDERRY DR" }, "geometry": { "type": "Point", "coordinates": [ -84.53879393, 38.05306387 ] } },
{ "type": "Feature", "properties": { "ParcelNo": 38009780, "Number": "285", "Street": "Lucille Dr", "CouncilDistrict": 2, "PropertyType": "R", "NoWaterService": "Yes", "CodeEnforcementCase": "Yes", "ReportedtoCity": "Yes", "Yes": -84.546037, "y": 38.090166, "Address": "285 LUCILLE DR" }, "geometry": { "type": "Point", "coordinates": [ -84.54603694, 38.09016617 ] } },
{ "type": "Feature", "properties": { "ParcelNo": 16763558, "Number": "721", "Street": "Magoffin St", "CouncilDistrict": 1, "PropertyType": "R", "NoWaterService": "", "CodeEnforcementCase": "Yes", "ReportedtoCity": "Yes", "Yes": -84.476154, "y": 38.049560, "Address": "721 MAGOFFIN ST" }, "geometry": { "type": "Point", "coordinates": [ -84.47615396, 38.04955976 ] } },
{ "type": "Feature", "properties": { "ParcelNo": 12860800, "Number": "221", "Street": "Mandalay Rd", "CouncilDistrict": 11, "PropertyType": "R", "NoWaterService": "", "CodeEnforcementCase": "Yes", "ReportedtoCity": "Yes", "Yes": -84.544010, "y": 38.055004, "Address": "221 MANDALAY RD" }, "geometry": { "type": "Point", "coordinates": [ -84.5440097, 38.05500443 ] } },
{ "type": "Feature", "properties": { "ParcelNo": 26193350, "Number": "307", "Street": "Mariemont Dr", "CouncilDistrict": 6, "PropertyType": "R", "NoWaterService": "Yes", "CodeEnforcementCase": "Yes", "ReportedtoCity": "", "Yes": -84.458657, "y": 38.064854, "Address": "307 MARIEMONT DR" }, "geometry": { "type": "Point", "coordinates": [ -84.4586567, 38.06485351 ] } },
{ "type": "Feature", "properties": { "ParcelNo": 16588850, "Number": "2213", "Street": "Markham Ct", "CouncilDistrict": 10, "PropertyType": "R", "NoWaterService": "Yes", "CodeEnforcementCase": "Yes", "ReportedtoCity": "Yes", "Yes": -84.551372, "y": 38.022452, "Address": "2213 MARKHAM CT" }, "geometry": { "type": "Point", "coordinates": [ -84.55137221, 38.02245161 ] } },
{ "type": "Feature", "properties": { "ParcelNo": 14120615, "Number": "1604", "Street": "Martha Ct", "CouncilDistrict": 6, "PropertyType": "R", "NoWaterService": "Yes", "CodeEnforcementCase": "Yes", "ReportedtoCity": "", "Yes": -84.448617, "y": 38.047351, "Address": "1604 MARTHA CT" }, "geometry": { "type": "Point", "coordinates": [ -84.44861668, 38.04735096 ] } },
{ "type": "Feature", "properties": { "ParcelNo": 11749400, "Number": "2002", "Street": "Memphis Ct", "CouncilDistrict": 6, "PropertyType": "R", "NoWaterService": "", "CodeEnforcementCase": "Yes", "ReportedtoCity": "Yes", "Yes": -84.435460, "y": 38.054304, "Address": "2002 MEMPHIS CT" }, "geometry": { "type": "Point", "coordinates": [ -84.43546013, 38.05430375 ] } },
{ "type": "Feature", "properties": { "ParcelNo": 25855700, "Number": "588", "Street": "Mitchell Ave", "CouncilDistrict": 10, "PropertyType": "R", "NoWaterService": "Yes", "CodeEnforcementCase": "Yes", "ReportedtoCity": "", "Yes": -84.531456, "y": 38.021804, "Address": "588 MITCHELL AVE" }, "geometry": { "type": "Point", "coordinates": [ -84.53145644, 38.02180377 ] } },
{ "type": "Feature", "properties": { "ParcelNo": 26016200, "Number": "598", "Street": "Mitchell Ave", "CouncilDistrict": 10, "PropertyType": "R", "NoWaterService": "Yes", "CodeEnforcementCase": "Yes", "ReportedtoCity": "", "Yes": -84.532321, "y": 38.022196, "Address": "598 MITCHELL AVE" }, "geometry": { "type": "Point", "coordinates": [ -84.5323215, 38.02219589 ] } },
{ "type": "Feature", "properties": { "ParcelNo": 13241100, "Number": "170", "Street": "Montmullin St", "CouncilDistrict": 3, "PropertyType": "R", "NoWaterService": "Yes", "CodeEnforcementCase": "Yes", "ReportedtoCity": "", "Yes": -84.509683, "y": 38.038730, "Address": "170 MONTMULLIN ST" }, "geometry": { "type": "Point", "coordinates": [ -84.50968344, 38.03873012 ] } },
{ "type": "Feature", "properties": { "ParcelNo": 11887781, "Number": "1409", "Street": "Mt Rainier Dr", "CouncilDistrict": 8, "PropertyType": "R", "NoWaterService": "", "CodeEnforcementCase": "Yes", "ReportedtoCity": "Yes", "Yes": -84.466861, "y": 37.980706, "Address": "1409 MT RAINIER DR" }, "geometry": { "type": "Point", "coordinates": [ -84.46686056, 37.98070632 ] } },
{ "type": "Feature", "properties": { "ParcelNo": 11218300, "Number": "737", "Street": "Mt Vernon Dr", "CouncilDistrict": 3, "PropertyType": "R", "NoWaterService": "Yes", "CodeEnforcementCase": "Yes", "ReportedtoCity": "", "Yes": -84.492818, "y": 38.025368, "Address": "737 MT VERNON DR" }, "geometry": { "type": "Point", "coordinates": [ -84.4928184, 38.02536828 ] } },
{ "type": "Feature", "properties": { "ParcelNo": 12288100, "Number": "555", "Street": "N Broadway", "CouncilDistrict": 1, "PropertyType": "R", "NoWaterService": "Yes", "CodeEnforcementCase": "Yes", "ReportedtoCity": "Yes", "Yes": -84.489901, "y": 38.056418, "Address": "555 N BROADWAY" }, "geometry": { "type": "Point", "coordinates": [ -84.48990085, 38.05641837 ] } },
{ "type": "Feature", "properties": { "ParcelNo": 13092900, "Number": "734", "Street": "N Broadway", "CouncilDistrict": 1, "PropertyType": "M", "NoWaterService": "Yes", "CodeEnforcementCase": "Yes", "ReportedtoCity": "Yes", "Yes": -84.485858, "y": 38.058345, "Address": "734 N BROADWAY" }, "geometry": { "type": "Point", "coordinates": [ -84.48585779, 38.05834468 ] } },
{ "type": "Feature", "properties": { "ParcelNo": 10535200, "Number": "171", "Street": "N Hanover Ave", "CouncilDistrict": 3, "PropertyType": "R", "NoWaterService": "Yes", "CodeEnforcementCase": "Yes", "ReportedtoCity": "", "Yes": -84.480759, "y": 38.036375, "Address": "171 N HANOVER AVE" }, "geometry": { "type": "Point", "coordinates": [ -84.4807586, 38.03637475 ] } },
{ "type": "Feature", "properties": { "ParcelNo": 16442700, "Number": "339", "Street": "N Limestone", "CouncilDistrict": 1, "PropertyType": "R", "NoWaterService": "", "CodeEnforcementCase": "Yes", "ReportedtoCity": "Yes", "Yes": -84.491714, "y": 38.050484, "Address": "339 N LIMESTONE" }, "geometry": { "type": "Point", "coordinates": [ -84.49171404, 38.05048425 ] } },
{ "type": "Feature", "properties": { "ParcelNo": 16442600, "Number": "341", "Street": "N Limestone", "CouncilDistrict": 1, "PropertyType": "R", "NoWaterService": "", "CodeEnforcementCase": "Yes", "ReportedtoCity": "Yes", "Yes": -84.491616, "y": 38.050494, "Address": "341 N LIMESTONE" }, "geometry": { "type": "Point", "coordinates": [ -84.49161585, 38.05049351 ] } },
{ "type": "Feature", "properties": { "ParcelNo": 12691500, "Number": "636", "Street": "N Limestone", "CouncilDistrict": 1, "PropertyType": "R", "NoWaterService": "", "CodeEnforcementCase": "Yes", "ReportedtoCity": "Yes", "Yes": -84.484991, "y": 38.054425, "Address": "636 N LIMESTONE" }, "geometry": { "type": "Point", "coordinates": [ -84.4849914, 38.05442538 ] } },
{ "type": "Feature", "properties": { "ParcelNo": 16252300, "Number": "675", "Street": "N Martin Luther King Blvd", "CouncilDistrict": 1, "PropertyType": "R", "NoWaterService": "", "CodeEnforcementCase": "Yes", "ReportedtoCity": "Yes", "Yes": -84.482554, "y": 38.053762, "Address": "675 N MARTIN LUTHER KING BLVD" }, "geometry": { "type": "Point", "coordinates": [ -84.48255422, 38.05376204 ] } },
{ "type": "Feature", "properties": { "ParcelNo": 14597800, "Number": "614", "Street": "N Upper St", "CouncilDistrict": 1, "PropertyType": "R", "NoWaterService": "", "CodeEnforcementCase": "Yes", "ReportedtoCity": "Yes", "Yes": -84.486492, "y": 38.054816, "Address": "614 N UPPER ST" }, "geometry": { "type": "Point", "coordinates": [ -84.48649169, 38.054816 ] } },
{ "type": "Feature", "properties": { "ParcelNo": 26203435, "Number": "2318", "Street": "Nancy Ln", "CouncilDistrict": 6, "PropertyType": "R", "NoWaterService": "", "CodeEnforcementCase": "Yes", "ReportedtoCity": "Yes", "Yes": -84.453788, "y": 38.085208, "Address": "2318 NANCY LN" }, "geometry": { "type": "Point", "coordinates": [ -84.45378841, 38.08520782 ] } },
{ "type": "Feature", "properties": { "ParcelNo": 25004800, "Number": "1900", "Street": "Nicholasville Rd", "CouncilDistrict": 4, "PropertyType": "R", "NoWaterService": "Yes", "CodeEnforcementCase": "Yes", "ReportedtoCity": "", "Yes": -84.515326, "y": 38.013767, "Address": "1900 NICHOLASVILLE RD" }, "geometry": { "type": "Point", "coordinates": [ -84.51532627, 38.01376738 ] } },
{ "type": "Feature", "properties": { "ParcelNo": 38038870, "Number": "748", "Street": "Nickwood Trl", "CouncilDistrict": 6, "PropertyType": "R", "NoWaterService": "", "CodeEnforcementCase": "", "ReportedtoCity": "Yes", "Yes": -84.434292, "y": 38.016243, "Address": "748 NICKWOOD TRL" }, "geometry": { "type": "Point", "coordinates": [ -84.43429213, 38.01624325 ] } },
{ "type": "Feature", "properties": { "ParcelNo": 26665399, "Number": "1721", "Street": "Normandy Rd", "CouncilDistrict": 11, "PropertyType": "R", "NoWaterService": "", "CodeEnforcementCase": "", "ReportedtoCity": "Yes", "Yes": -84.539821, "y": 38.038644, "Address": "1721 NORMANDY RD" }, "geometry": { "type": "Point", "coordinates": [ -84.53982116, 38.03864449 ] } },
{ "type": "Feature", "properties": { "ParcelNo": 20067430, "Number": "4648", "Street": "Oak Creek Dr", "CouncilDistrict": 8, "PropertyType": "R", "NoWaterService": "Yes", "CodeEnforcementCase": "Yes", "ReportedtoCity": "Yes", "Yes": -84.485738, "y": 37.959765, "Address": "4648 OAK CREEK DR" }, "geometry": { "type": "Point", "coordinates": [ -84.48573809, 37.95976467 ] } },
{ "type": "Feature", "properties": { "ParcelNo": 14929100, "Number": "1126", "Street": "Oak Hill Dr", "CouncilDistrict": 1, "PropertyType": "R", "NoWaterService": "", "CodeEnforcementCase": "Yes", "ReportedtoCity": "Yes", "Yes": -84.469020, "y": 38.054634, "Address": "1126 OAK HILL DR" }, "geometry": { "type": "Point", "coordinates": [ -84.46901995, 38.0546338 ] } },
{ "type": "Feature", "properties": { "ParcelNo": 10856400, "Number": "1078", "Street": "Oakwood Dr", "CouncilDistrict": 1, "PropertyType": "R", "NoWaterService": "Yes", "CodeEnforcementCase": "Yes", "ReportedtoCity": "", "Yes": -84.503790, "y": 38.085038, "Address": "1078 OAKWOOD DR" }, "geometry": { "type": "Point", "coordinates": [ -84.50378959, 38.08503806 ] } },
{ "type": "Feature", "properties": { "ParcelNo": 13151450, "Number": "438", "Street": "Ohio St", "CouncilDistrict": 1, "PropertyType": "E", "NoWaterService": "", "CodeEnforcementCase": "Yes", "ReportedtoCity": "Yes", "Yes": -84.484992, "y": 38.047704, "Address": "438 OHIO ST" }, "geometry": { "type": "Point", "coordinates": [ -84.48499185, 38.04770434 ] } },
{ "type": "Feature", "properties": { "ParcelNo": 10896400, "Number": "530", "Street": "Ohio St", "CouncilDistrict": 1, "PropertyType": "R", "NoWaterService": "", "CodeEnforcementCase": "Yes", "ReportedtoCity": "Yes", "Yes": -84.483156, "y": 38.049048, "Address": "530 OHIO ST" }, "geometry": { "type": "Point", "coordinates": [ -84.48315552, 38.04904764 ] } },
{ "type": "Feature", "properties": { "ParcelNo": 15174300, "Number": "632", "Street": "Ohio St", "CouncilDistrict": 1, "PropertyType": "R", "NoWaterService": "", "CodeEnforcementCase": "Yes", "ReportedtoCity": "Yes", "Yes": -84.480948, "y": 38.050747, "Address": "632 OHIO ST" }, "geometry": { "type": "Point", "coordinates": [ -84.48094779, 38.05074702 ] } },
{ "type": "Feature", "properties": { "ParcelNo": 10498200, "Number": "209-211", "Street": "Old Georgetown St", "CouncilDistrict": 2, "PropertyType": "C", "NoWaterService": "", "CodeEnforcementCase": "Yes", "ReportedtoCity": "Yes", "Yes": -84.502797, "y": 38.056145, "Address": "209 OLD GEORGETOWN ST" }, "geometry": { "type": "Point", "coordinates": [ -84.50279725, 38.05614521 ] } },
{ "type": "Feature", "properties": { "ParcelNo": 38167250, "Number": "4379", "Street": "Old Harrodsburg Rd", "CouncilDistrict": 10, "PropertyType": "C", "NoWaterService": "Yes", "CodeEnforcementCase": "Yes", "ReportedtoCity": "", "Yes": -84.585197, "y": 37.996877, "Address": "4379 OLD HARRODSBURG RD" }, "geometry": { "type": "Point", "coordinates": [ -84.58519749, 37.99687708 ] } },
{ "type": "Feature", "properties": { "ParcelNo": 24179425, "Number": "1202", "Street": "Old Main St", "CouncilDistrict": 2, "PropertyType": "R", "NoWaterService": "Yes", "CodeEnforcementCase": "Yes", "ReportedtoCity": "Yes", "Yes": -84.517717, "y": 38.061408, "Address": "1202 OLD MAIN ST" }, "geometry": { "type": "Point", "coordinates": [ -84.51771747, 38.06140787 ] } },
{ "type": "Feature", "properties": { "ParcelNo": 22780354, "Number": "2013", "Street": "Old Paris Rd", "CouncilDistrict": 6, "PropertyType": "R", "NoWaterService": "", "CodeEnforcementCase": "Yes", "ReportedtoCity": "Yes", "Yes": -84.455975, "y": 38.075360, "Address": "2013 OLD PARIS RD" }, "geometry": { "type": "Point", "coordinates": [ -84.45597521, 38.07535977 ] } },
{ "type": "Feature", "properties": { "ParcelNo": 23488300, "Number": "8821", "Street": "Old Richmond Rd", "CouncilDistrict": 12, "PropertyType": "R", "NoWaterService": "", "CodeEnforcementCase": "Yes", "ReportedtoCity": "Yes", "Yes": -84.344782, "y": 37.884971, "Address": "8821 OLD RICHMOND RD" }, "geometry": { "type": "Point", "coordinates": [ -84.34478203, 37.88497087 ] } },
{ "type": "Feature", "properties": { "ParcelNo": 14758500, "Number": "271", "Street": "Osage Ct", "CouncilDistrict": 7, "PropertyType": "R", "NoWaterService": "Yes", "CodeEnforcementCase": "Yes", "ReportedtoCity": "", "Yes": -84.450866, "y": 38.015818, "Address": "271 OSAGE CT" }, "geometry": { "type": "Point", "coordinates": [ -84.45086614, 38.01581827 ] } },
{ "type": "Feature", "properties": { "ParcelNo": 14700100, "Number": "287", "Street": "Osage Ct", "CouncilDistrict": 7, "PropertyType": "R", "NoWaterService": "Yes", "CodeEnforcementCase": "Yes", "ReportedtoCity": "", "Yes": -84.450332, "y": 38.015795, "Address": "287 OSAGE CT" }, "geometry": { "type": "Point", "coordinates": [ -84.45033174, 38.01579462 ] } },
{ "type": "Feature", "properties": { "ParcelNo": 20100520, "Number": "848", "Street": "Overview Dr", "CouncilDistrict": 9, "PropertyType": "R", "NoWaterService": "Yes", "CodeEnforcementCase": "Yes", "ReportedtoCity": "", "Yes": -84.553599, "y": 37.980946, "Address": "848 OVERVIEW DR" }, "geometry": { "type": "Point", "coordinates": [ -84.55359948, 37.98094582 ] } },
{ "type": "Feature", "properties": { "ParcelNo": 17281875, "Number": "1840", "Street": "Oxford Cir", "CouncilDistrict": 11, "PropertyType": "C", "NoWaterService": "Yes", "CodeEnforcementCase": "Yes", "ReportedtoCity": "", "Yes": -84.540598, "y": 38.049358, "Address": "1840 OXFORD CIR" }, "geometry": { "type": "Point", "coordinates": [ -84.54059818, 38.04935758 ] } },
{ "type": "Feature", "properties": { "ParcelNo": 44289000, "Number": "2004", "Street": "Parallel Rd", "CouncilDistrict": 2, "PropertyType": "R", "NoWaterService": "Yes", "CodeEnforcementCase": "Yes", "ReportedtoCity": "", "Yes": -84.511265, "y": 38.089790, "Address": "2004 PARALLEL RD" }, "geometry": { "type": "Point", "coordinates": [ -84.5112652, 38.08978977 ] } },
{ "type": "Feature", "properties": { "ParcelNo": 21490800, "Number": "526", "Street": "Parkside Dr", "CouncilDistrict": 6, "PropertyType": "R", "NoWaterService": "", "CodeEnforcementCase": "Yes", "ReportedtoCity": "Yes", "Yes": -84.453239, "y": 38.081421, "Address": "526 PARKSIDE DR" }, "geometry": { "type": "Point", "coordinates": [ -84.45323903, 38.08142112 ] } },
{ "type": "Feature", "properties": { "ParcelNo": 25352636, "Number": "433", "Street": "Pasadena Dr", "CouncilDistrict": 10, "PropertyType": "R", "NoWaterService": "", "CodeEnforcementCase": "Yes", "ReportedtoCity": "Yes", "Yes": -84.531376, "y": 38.008544, "Address": "433 PASADENA DR" }, "geometry": { "type": "Point", "coordinates": [ -84.53137647, 38.00854384 ] } },
{ "type": "Feature", "properties": { "ParcelNo": 38123630, "Number": "557", "Street": "Pasadena Dr", "CouncilDistrict": 10, "PropertyType": "R", "NoWaterService": "", "CodeEnforcementCase": "", "ReportedtoCity": "Yes", "Yes": -84.536188, "y": 38.011864, "Address": "557 PASADENA DR" }, "geometry": { "type": "Point", "coordinates": [ -84.5361883, 38.0118636 ] } },
{ "type": "Feature", "properties": { "ParcelNo": 10220777, "Number": "153-185", "Street": "Patchen Dr", "CouncilDistrict": 5, "PropertyType": "C", "NoWaterService": "Yes", "CodeEnforcementCase": "Yes", "ReportedtoCity": "", "Yes": -84.455045, "y": 38.007796, "Address": "153 PATCHEN DR" }, "geometry": { "type": "Point", "coordinates": [ -84.45504468, 38.00779552 ] } },
{ "type": "Feature", "properties": { "ParcelNo": 13705300, "Number": "365", "Street": "Peachtree Rd", "CouncilDistrict": 7, "PropertyType": "R", "NoWaterService": "Yes", "CodeEnforcementCase": "Yes", "ReportedtoCity": "", "Yes": -84.448357, "y": 38.018499, "Address": "365 PEACHTREE RD" }, "geometry": { "type": "Point", "coordinates": [ -84.44835748, 38.01849902 ] } },
{ "type": "Feature", "properties": { "ParcelNo": 17170900, "Number": "508", "Street": "Pemberton St", "CouncilDistrict": 1, "PropertyType": "R", "NoWaterService": "", "CodeEnforcementCase": "Yes", "ReportedtoCity": "Yes", "Yes": -84.482333, "y": 38.047220, "Address": "508 PEMBERTON ST" }, "geometry": { "type": "Point", "coordinates": [ -84.48233312, 38.04721969 ] } },
{ "type": "Feature", "properties": { "ParcelNo": 25158300, "Number": "120", "Street": "Penmoken Park", "CouncilDistrict": 3, "PropertyType": "R", "NoWaterService": "Yes", "CodeEnforcementCase": "Yes", "ReportedtoCity": "", "Yes": -84.517441, "y": 38.016509, "Address": "120 PENMOKEN PARK" }, "geometry": { "type": "Point", "coordinates": [ -84.51744052, 38.01650886 ] } },
{ "type": "Feature", "properties": { "ParcelNo": 27068250, "Number": "150", "Street": "Penmoken Park", "CouncilDistrict": 3, "PropertyType": "R", "NoWaterService": "Yes", "CodeEnforcementCase": "Yes", "ReportedtoCity": "Yes", "Yes": -84.519744, "y": 38.017316, "Address": "150 PENMOKEN PARK" }, "geometry": { "type": "Point", "coordinates": [ -84.51974437, 38.01731636 ] } },
{ "type": "Feature", "properties": { "ParcelNo": 27072800, "Number": "158", "Street": "Penmoken Park", "CouncilDistrict": 3, "PropertyType": "R", "NoWaterService": "", "CodeEnforcementCase": "", "ReportedtoCity": "Yes", "Yes": -84.520337, "y": 38.017525, "Address": "158 PENMOKEN PARK" }, "geometry": { "type": "Point", "coordinates": [ -84.52033686, 38.01752509 ] } },
{ "type": "Feature", "properties": { "ParcelNo": 13471600, "Number": "475", "Street": "Pilgrim Ct", "CouncilDistrict": 1, "PropertyType": "R", "NoWaterService": "", "CodeEnforcementCase": "Yes", "ReportedtoCity": "Yes", "Yes": -84.495919, "y": 38.058282, "Address": "475 PILGRIM CT" }, "geometry": { "type": "Point", "coordinates": [ -84.49591861, 38.05828224 ] } },
{ "type": "Feature", "properties": { "ParcelNo": 20005430, "Number": "3120-3130", "Street": "Pimlico Pkwy", "CouncilDistrict": 8, "PropertyType": "C", "NoWaterService": "Yes", "CodeEnforcementCase": "Yes", "ReportedtoCity": "", "Yes": -84.461394, "y": 37.984992, "Address": "3120 PIMLICO PKWY" }, "geometry": { "type": "Point", "coordinates": [ -84.4613935, 37.9849919 ] } },
{ "type": "Feature", "properties": { "ParcelNo": 11857025, "Number": "1048", "Street": "Pine Bloom Dr", "CouncilDistrict": 10, "PropertyType": "R", "NoWaterService": "", "CodeEnforcementCase": "Yes", "ReportedtoCity": "Yes", "Yes": -84.559497, "y": 38.027152, "Address": "1048 PINE BLOOM DR" }, "geometry": { "type": "Point", "coordinates": [ -84.55949717, 38.02715231 ] } },
{ "type": "Feature", "properties": { "ParcelNo": 10047020, "Number": "1526", "Street": "Player Dr", "CouncilDistrict": 2, "PropertyType": "R", "NoWaterService": "Yes", "CodeEnforcementCase": "Yes", "ReportedtoCity": "", "Yes": -84.482600, "y": 38.087724, "Address": "1526 PLAYER DR" }, "geometry": { "type": "Point", "coordinates": [ -84.48259999, 38.08772419 ] } },
{ "type": "Feature", "properties": { "ParcelNo": 38111530, "Number": "3776", "Street": "Polo Club Blvd", "CouncilDistrict": 12, "PropertyType": "R", "NoWaterService": "", "CodeEnforcementCase": "Yes", "ReportedtoCity": "Yes", "Yes": -84.394548, "y": 37.997657, "Address": "3776 POLO CLUB BLVD" }, "geometry": { "type": "Point", "coordinates": [ -84.39454793, 37.99765656 ] } },
{ "type": "Feature", "properties": { "ParcelNo": 12541600, "Number": "1323", "Street": "Prather Rd", "CouncilDistrict": 5, "PropertyType": "R", "NoWaterService": "", "CodeEnforcementCase": "Yes", "ReportedtoCity": "Yes", "Yes": -84.479340, "y": 38.016357, "Address": "1323 PRATHER RD" }, "geometry": { "type": "Point", "coordinates": [ -84.47933987, 38.01635664 ] } },
{ "type": "Feature", "properties": { "ParcelNo": 45904550, "Number": "301", "Street": "Preston Ave", "CouncilDistrict": 5, "PropertyType": "R", "NoWaterService": "", "CodeEnforcementCase": "Yes", "ReportedtoCity": "Yes", "Yes": -84.472972, "y": 38.034776, "Address": "301 PRESTON AVE" }, "geometry": { "type": "Point", "coordinates": [ -84.47297186, 38.03477602 ] } },
{ "type": "Feature", "properties": { "ParcelNo": 11364101, "Number": "319", "Street": "Race St", "CouncilDistrict": 1, "PropertyType": "R", "NoWaterService": "", "CodeEnforcementCase": "Yes", "ReportedtoCity": "Yes", "Yes": -84.485218, "y": 38.045014, "Address": "319 RACE ST" }, "geometry": { "type": "Point", "coordinates": [ -84.48521819, 38.04501423 ] } },
{ "type": "Feature", "properties": { "ParcelNo": 16069650, "Number": "1633", "Street": "Raleigh Rd", "CouncilDistrict": 6, "PropertyType": "M", "NoWaterService": "Yes", "CodeEnforcementCase": "", "ReportedtoCity": "Yes", "Yes": -84.441922, "y": 38.054059, "Address": "1633 RALEIGH RD" }, "geometry": { "type": "Point", "coordinates": [ -84.44192193, 38.05405932 ] } },
{ "type": "Feature", "properties": { "ParcelNo": 20130150, "Number": "1072", "Street": "Ramblewood Way", "CouncilDistrict": 6, "PropertyType": "R", "NoWaterService": "Yes", "CodeEnforcementCase": "Yes", "ReportedtoCity": "", "Yes": -84.402469, "y": 38.001698, "Address": "1072 RAMBLEWOOD WAY" }, "geometry": { "type": "Point", "coordinates": [ -84.40246912, 38.00169756 ] } },
{ "type": "Feature", "properties": { "ParcelNo": 15254656, "Number": "845", "Street": "Red Mile Rd", "CouncilDistrict": 11, "PropertyType": "M", "NoWaterService": "Yes", "CodeEnforcementCase": "Yes", "ReportedtoCity": "", "Yes": -84.525187, "y": 38.043892, "Address": "845 RED MILE RD" }, "geometry": { "type": "Point", "coordinates": [ -84.5251872, 38.04389208 ] } },
{ "type": "Feature", "properties": { "ParcelNo": 20069209, "Number": "2551", "Street": "Regency Rd", "CouncilDistrict": 10, "PropertyType": "C", "NoWaterService": "Yes", "CodeEnforcementCase": "Yes", "ReportedtoCity": "", "Yes": -84.525451, "y": 38.001824, "Address": "2551 REGENCY RD" }, "geometry": { "type": "Point", "coordinates": [ -84.52545083, 38.00182391 ] } },
{ "type": "Feature", "properties": { "ParcelNo": 10032580, "Number": "2617", "Street": "Regency Rd", "CouncilDistrict": 10, "PropertyType": "C", "NoWaterService": "Yes", "CodeEnforcementCase": "Yes", "ReportedtoCity": "", "Yes": -84.525705, "y": 38.000540, "Address": "2617 REGENCY RD" }, "geometry": { "type": "Point", "coordinates": [ -84.52570527, 38.00054032 ] } },
{ "type": "Feature", "properties": { "ParcelNo": 14241290, "Number": "3578", "Street": "River Park Dr", "CouncilDistrict": 8, "PropertyType": "R", "NoWaterService": "Yes", "CodeEnforcementCase": "Yes", "ReportedtoCity": "", "Yes": -84.476689, "y": 37.975744, "Address": "3578 RIVER PARK DR" }, "geometry": { "type": "Point", "coordinates": [ -84.4766887, 37.97574359 ] } },
{ "type": "Feature", "properties": { "ParcelNo": 15129700, "Number": "3608", "Street": "River Park Dr", "CouncilDistrict": 8, "PropertyType": "R", "NoWaterService": "", "CodeEnforcementCase": "Yes", "ReportedtoCity": "Yes", "Yes": -84.477955, "y": 37.974047, "Address": "3608 RIVER PARK DR" }, "geometry": { "type": "Point", "coordinates": [ -84.47795544, 37.97404654 ] } },
{ "type": "Feature", "properties": { "ParcelNo": 27217298, "Number": "3564", "Street": "Rocky Hill Ter", "CouncilDistrict": 4, "PropertyType": "R", "NoWaterService": "", "CodeEnforcementCase": "Yes", "ReportedtoCity": "Yes", "Yes": -84.514989, "y": 37.983812, "Address": "3564 ROCKY HILL TER" }, "geometry": { "type": "Point", "coordinates": [ -84.51498916, 37.98381161 ] } },
{ "type": "Feature", "properties": { "ParcelNo": 15293100, "Number": "300", "Street": "Romany Rd", "CouncilDistrict": 5, "PropertyType": "R", "NoWaterService": "Yes", "CodeEnforcementCase": "Yes", "ReportedtoCity": "", "Yes": -84.485809, "y": 38.020891, "Address": "300 ROMANY RD" }, "geometry": { "type": "Point", "coordinates": [ -84.48580942, 38.02089114 ] } },
{ "type": "Feature", "properties": { "ParcelNo": 13293450, "Number": "369", "Street": "Roosevelt Blvd", "CouncilDistrict": 2, "PropertyType": "R", "NoWaterService": "Yes", "CodeEnforcementCase": "Yes", "ReportedtoCity": "", "Yes": -84.505146, "y": 38.067489, "Address": "369 ROOSEVELT BLVD" }, "geometry": { "type": "Point", "coordinates": [ -84.5051456, 38.0674888 ] } },
{ "type": "Feature", "properties": { "ParcelNo": 12808250, "Number": "333", "Street": "Ross Ave", "CouncilDistrict": 1, "PropertyType": "R", "NoWaterService": "", "CodeEnforcementCase": "Yes", "ReportedtoCity": "Yes", "Yes": -84.497270, "y": 38.055285, "Address": "333 ROSS AVE" }, "geometry": { "type": "Point", "coordinates": [ -84.49726951, 38.05528542 ] } },
{ "type": "Feature", "properties": { "ParcelNo": 11812600, "Number": "914", "Street": "Royal Ave", "CouncilDistrict": 5, "PropertyType": "R", "NoWaterService": "", "CodeEnforcementCase": "Yes", "ReportedtoCity": "Yes", "Yes": -84.468957, "y": 38.042569, "Address": "914 ROYAL AVE" }, "geometry": { "type": "Point", "coordinates": [ -84.46895724, 38.04256864 ] } },
{ "type": "Feature", "properties": { "ParcelNo": 10186600, "Number": "1501", "Street": "Russell Cave Rd", "CouncilDistrict": 1, "PropertyType": "C", "NoWaterService": "Yes", "CodeEnforcementCase": "Yes", "ReportedtoCity": "", "Yes": -84.476691, "y": 38.072091, "Address": "1501 RUSSELL CAVE RD" }, "geometry": { "type": "Point", "coordinates": [ -84.47669128, 38.07209064 ] } },
{ "type": "Feature", "properties": { "ParcelNo": 15251900, "Number": "1782", "Street": "Russell Cave Rd", "CouncilDistrict": 1, "PropertyType": "R", "NoWaterService": "Yes", "CodeEnforcementCase": "Yes", "ReportedtoCity": "", "Yes": -84.468978, "y": 38.082315, "Address": "1782 RUSSELL CAVE RD" }, "geometry": { "type": "Point", "coordinates": [ -84.46897804, 38.08231516 ] } },
{ "type": "Feature", "properties": { "ParcelNo": 38213630, "Number": "1325", "Street": "Russell Springs Dr", "CouncilDistrict": 1, "PropertyType": "R", "NoWaterService": "Yes", "CodeEnforcementCase": "", "ReportedtoCity": "Yes", "Yes": -84.487013, "y": 38.084263, "Address": "1325 RUSSELL SPRINGS DR" }, "geometry": { "type": "Point", "coordinates": [ -84.48701269, 38.08426263 ] } },
{ "type": "Feature", "properties": { "ParcelNo": 11364700, "Number": "285", "Street": "S Ashland Ave", "CouncilDistrict": 5, "PropertyType": "R", "NoWaterService": "Yes", "CodeEnforcementCase": "Yes", "ReportedtoCity": "", "Yes": -84.489861, "y": 38.031970, "Address": "285 S ASHLAND AVE" }, "geometry": { "type": "Point", "coordinates": [ -84.48986102, 38.03197023 ] } },
{ "type": "Feature", "properties": { "ParcelNo": 10718200, "Number": "1026", "Street": "S Broadway", "CouncilDistrict": 3, "PropertyType": "C", "NoWaterService": "Yes", "CodeEnforcementCase": "Yes", "ReportedtoCity": "", "Yes": -84.516194, "y": 38.037814, "Address": "1026 S BROADWAY" }, "geometry": { "type": "Point", "coordinates": [ -84.51619447, 38.03781437 ] } },
{ "type": "Feature", "properties": { "ParcelNo": 16442800, "Number": "111-113", "Street": "Salem St", "CouncilDistrict": 1, "PropertyType": "R", "NoWaterService": "Yes", "CodeEnforcementCase": "", "ReportedtoCity": "Yes", "Yes": -84.491802, "y": 38.050624, "Address": "111 SALEM ST" }, "geometry": { "type": "Point", "coordinates": [ -84.4918023, 38.05062365 ] } },
{ "type": "Feature", "properties": { "ParcelNo": 27241950, "Number": "3716", "Street": "Salisbury Dr", "CouncilDistrict": 12, "PropertyType": "R", "NoWaterService": "", "CodeEnforcementCase": "Yes", "ReportedtoCity": "Yes", "Yes": -84.631589, "y": 38.044637, "Address": "3716 SALISBURY DR" }, "geometry": { "type": "Point", "coordinates": [ -84.63158894, 38.04463712 ] } },
{ "type": "Feature", "properties": { "ParcelNo": 38256030, "Number": "341-343", "Street": "Scott St", "CouncilDistrict": 0, "PropertyType": "E", "NoWaterService": "", "CodeEnforcementCase": "Yes", "ReportedtoCity": "Yes", "Yes": -84.509693, "y": 38.041991, "Address": "341-343 SCOTT ST" }, "geometry": { "type": "Point", "coordinates": [ -84.50969316, 38.04199054 ] } },
{ "type": "Feature", "properties": { "ParcelNo": 38119940, "Number": "3173", "Street": "Scottish Trce", "CouncilDistrict": 12, "PropertyType": "R", "NoWaterService": "", "CodeEnforcementCase": "Yes", "ReportedtoCity": "Yes", "Yes": -84.400205, "y": 38.023577, "Address": "3173 SCOTTISH TRCE" }, "geometry": { "type": "Point", "coordinates": [ -84.40020492, 38.02357662 ] } },
{ "type": "Feature", "properties": { "ParcelNo": 22286200, "Number": "753", "Street": "Seattle Dr", "CouncilDistrict": 10, "PropertyType": "R", "NoWaterService": "Yes", "CodeEnforcementCase": "Yes", "ReportedtoCity": "", "Yes": -84.547331, "y": 38.015795, "Address": "753 SEATTLE DR" }, "geometry": { "type": "Point", "coordinates": [ -84.54733071, 38.01579497 ] } },
{ "type": "Feature", "properties": { "ParcelNo": 20755700, "Number": "253", "Street": "Shady Ln", "CouncilDistrict": 4, "PropertyType": "R", "NoWaterService": "Yes", "CodeEnforcementCase": "Yes", "ReportedtoCity": "Yes", "Yes": -84.505954, "y": 38.012323, "Address": "253 SHADY LN" }, "geometry": { "type": "Point", "coordinates": [ -84.50595422, 38.01232305 ] } },
{ "type": "Feature", "properties": { "ParcelNo": 10276579, "Number": "3205", "Street": "Shoal Lake Dr", "CouncilDistrict": 7, "PropertyType": "R", "NoWaterService": "Yes", "CodeEnforcementCase": "Yes", "ReportedtoCity": "", "Yes": -84.456345, "y": 37.989532, "Address": "3205 SHOAL LAKE DR" }, "geometry": { "type": "Point", "coordinates": [ -84.45634473, 37.9895321 ] } },
{ "type": "Feature", "properties": { "ParcelNo": 45418500, "Number": "1319", "Street": "Southern Ave", "CouncilDistrict": 3, "PropertyType": "R", "NoWaterService": "", "CodeEnforcementCase": "", "ReportedtoCity": "Yes", "Yes": -84.518434, "y": 38.032090, "Address": "1319 SOUTHERN AVE" }, "geometry": { "type": "Point", "coordinates": [ -84.51843397, 38.03209032 ] } },
{ "type": "Feature", "properties": { "ParcelNo": 45652450, "Number": "1321", "Street": "Southern Ave", "CouncilDistrict": 3, "PropertyType": "R", "NoWaterService": "", "CodeEnforcementCase": "Yes", "ReportedtoCity": "Yes", "Yes": -84.518522, "y": 38.031971, "Address": "1321 SOUTHERN AVE" }, "geometry": { "type": "Point", "coordinates": [ -84.51852154, 38.03197089 ] } },